timestamp_sec,pos_x,pos_y,pos_z,vel_x,vel_y,vel_z,acc_x,acc_y,acc_z,heading,delta_heading,ref_lat,ref_lon,ref_alt,lat,lon,alt,alt_ellipsoid,q_w,q_x,q_y,q_z,roll_deg,pitch_deg,yaw_deg,rollspeed,pitchspeed,yawspeed,arming_state,nav_state,failsafe,system_type,system_id,flag_armed,flag_multicopter_position_control_enabled,flag_control_manual_enabled,flag_control_auto_enabled,flag_control_offboard_enabled,flag_control_rates_enabled,flag_control_attitude_enabled,flag_control_altitude_enabled,flag_control_climb_rate_enabled,flag_control_velocity_enabled,flag_control_position_enabled,gyro_x,gyro_y,gyro_z,accel_x,accel_y,accel_z,mag_x,mag_y,mag_z,voltage_v,current_a,remaining_percent,discharged_mah,temperature,odom_pos_x,odom_pos_y,odom_pos_z,odom_vel_x,odom_vel_y,odom_vel_z,landed,freefall,ground_contact,round_trip_time,mode_req_angular_velocity,mode_req_attitude,mode_req_local_alt,mode_req_local_position,mode_req_global_position,mode_req_mission,target_x,target_y,target_z,bbox_area,bbox_confidence,boundary_violation,enhanced_x,enhanced_y,enhanced_z,rover_cmd_linear_x,rover_cmd_linear_y,rover_cmd_angular_z,joint_1_pos,joint_2_pos,joint_3_pos,joint_4_pos,joint_5_pos,joint_6_pos,joint_1_vel,joint_2_vel,joint_3_vel,joint_4_vel,joint_5_vel,joint_6_vel,goal_x,goal_y,goal_z,clicked_x,clicked_y,clicked_z
1759558878.4460387,0.0,0.0,0.0,0.0,0.0,0.0,0.0,0.0,0.0,0.0,0.0,0.0,0.0,0.0,0.0,0.0,0.0,0.0,0.0,0.0,0.0,0.0,0.0,0.0,0.0,0.0,0.0,0.0,0,0,0,0,0,0,0,0,0,0,0,0,0,0,0,0,0.0,0.0,0.0,0.0,0.0,0.0,0.0,0.0,0.0,0.0,0.0,0.0,0.0,0.0,0.0,0.0,0.0,0.0,0.0,0.0,0,0,0,0,0,0,0,0,0,0,0.0,0.0,0.0,0.0,0.0,0.0,0.0,0.0,0.0,0.0,0.0,0.0,0.0,0.0,0.0,0.0,0.0,0.0,0.0,0.0,0.0,0.0,0.0,0.0,0.0,0.0,0.0,0.0,0.0,0.0
1759558878.5097759,0.012425835244357586,-0.034127768129110336,-0.028533935546875,0.03982264921069145,-0.04617767781019211,-0.004997963085770607,0.03857585787773132,-0.017318718135356903,-0.00970065500587225,1.5188407897949219,1.5812242031097412,47.3977508,8.5456074,488.2650146484375,47.39775091174822,8.545606946585629,488.2935485839844,488.2935485839844,0.7252345,0.0009790031,-0.0013635077,0.6885,-0.026215046306505067,-0.19055539873878408,87.02316862719458,0.0,0.0,0.0,1,4,False,13,1,0,1,0,1,0,1,1,1,1,1,1,0.0,0.0,0.0,0.0,0.0,0.0,0.0,0.0,0.0,0.0,0.0,0.0,0.0,0.0,0.012425835,-0.034127768,-0.028533936,0.03982265,-0.046177678,-0.004997963,0,0,0,0,0,0,0,0,0,0,0.0,0.0,0.0,0.0,0.0,0.0,0.0,0.0,0.0,0.0,0.0,0.0,0.0,0.0,0.0,0.0,0.0,0.0,0.0,0.0,0.0,0.0,0.0,0.0,0.0,0.0,0.0,0.0,0.0,0.0
1759558878.6097116,0.012348679825663567,-0.032626569271087646,-0.028472900390625,0.04224732890725136,-0.04927847906947136,-0.009996882639825344,-0.0027199164032936096,-0.13746410608291626,-0.2884855270385742,1.5187036991119385,1.5812242031097412,47.3977508,8.5456074,488.2650146484375,47.39775091105434,8.545606966530224,488.2934875488281,488.2934875488281,0.7252796,0.0012065067,-0.0012839207,0.6884522,-0.0010156634295812696,-0.20189055102502346,87.01559165233036,0.0,0.0,0.0,1,4,False,13,1,0,1,0,1,0,1,1,1,1,1,1,0.0,0.0,0.0,0.0,0.0,0.0,0.0,0.0,0.0,0.0,0.0,0.0,0.0,0.0,0.01234868,-0.03262657,-0.0284729,0.04224733,-0.04927848,-0.009996883,0,0,0,0,8312190,8311166,8257918,7995448,56,8,0.0,0.0,0.0,0.0,0.0,0.0,0.0,0.0,0.0,0.0,0.0,0.0,0.0,0.0,0.0,0.0,0.0,0.0,0.0,0.0,0.0,0.0,0.0,0.0,0.0,0.0,0.0,0.0,0.0,0.0
1759558878.7096784,0.013756359927356243,-0.03318885341286659,-0.028656005859375,0.04550105333328247,-0.05076370760798454,-0.005382105708122253,0.10229558497667313,0.07011725008487701,-0.19503895938396454,1.5188536643981934,1.5812242031097412,47.3977508,8.5456074,488.2650146484375,47.397750923713915,8.545606959059846,488.2936706542969,488.2936706542969,0.72522974,0.0011736042,-0.00085774524,0.6885054,0.02985928946186239,-0.16387705891621024,87.02390414960774,0.0,0.0,0.0,1,4,False,13,1,0,1,0,1,0,1,1,1,1,1,1,0.0,0.0,0.0,0.0,0.0,0.0,0.0,0.0,0.0,16.200000762939453,-1.0,99.99465942382812,-94.06011199951172,nan,0.01375636,-0.033188853,-0.028656006,0.045501053,-0.050763708,-0.0053821057,0,0,0,0,8312190,8311166,8257918,7995448,56,8,0.0,0.0,0.0,0.0,0.0,0.0,0.0,0.0,0.0,0.0,0.0,0.0,0.0,0.0,0.0,0.0,0.0,0.0,0.0,0.0,0.0,0.0,0.0,0.0,0.0,0.0,0.0,0.0,0.0,0.0
1759558878.8097656,0.016033537685871124,-0.03515435382723808,-0.029052734375,0.045160889625549316,-0.052730072289705276,-0.008267260156571865,0.05282429978251457,-0.08978426456451416,0.17743836343288422,1.5189391374588013,1.5812242031097412,47.3977508,8.5456074,488.2650146484375,47.39775094419306,8.545606932946615,488.2940673828125,488.2940673828125,0.72519314,0.0010764874,-0.00084764685,0.68854415,0.022576793663279453,-0.15537680213650554,87.03002344430779,0.0,0.0,0.0,1,4,False,13,1,0,1,0,1,0,1,1,1,1,1,1,0.0,0.0,0.0,0.0,0.0,0.0,0.0,0.0,0.0,16.200000762939453,-1.0,99.99465942382812,-94.06011199951172,nan,0.016033538,-0.035154354,-0.029052734,0.04516089,-0.052730072,-0.00826726,0,0,0,0,8312190,8311166,8257918,7995448,56,8,0.0,0.0,0.0,0.0,0.0,0.0,0.0,0.0,0.0,0.0,0.0,0.0,0.0,0.0,0.0,0.0,0.0,0.0,0.0,0.0,0.0,0.0,0.0,0.0,0.0,0.0,0.0,0.0,0.0,0.0
1759558878.9098096,0.01699146442115307,-0.035828687250614166,-0.02960205078125,0.0432824045419693,-0.05345805734395981,-0.00789728481322527,-0.04611172527074814,-0.00025705411098897457,-0.06115249916911125,1.5186845064163208,1.5812242031097412,47.3977508,8.5456074,488.2650146484375,47.397750952807904,8.545606923987581,488.29461669921875,488.29461669921875,0.72528046,0.0011104217,-0.0011881798,0.6884516,-0.0014481145074173593,-0.18635315548089748,87.01547100867856,0.0,0.0,0.0,1,4,False,13,1,0,1,0,1,0,1,1,1,1,1,1,0.0,0.0,0.0,0.0,0.0,0.0,0.0,0.0,0.0,16.200000762939453,-1.0,99.99465942382812,-94.06011199951172,nan,0.016991464,-0.035828687,-0.02960205,0.043282405,-0.053458057,-0.007897285,0,0,0,0,8312190,8311166,8257918,7995448,56,8,0.0,0.0,0.0,0.0,0.0,0.0,0.0,0.0,0.0,0.0,0.0,0.0,0.0,0.0,0.0,0.0,0.0,0.0,0.0,0.0,0.0,0.0,0.0,0.0,0.0,0.0,0.0,0.0,0.0,0.0
1759558879.0096743,0.01761513203382492,-0.03646836057305336,-0.03021240234375,0.04440140724182129,-0.055744610726833344,-0.00733487494289875,0.024003593251109123,-0.08279683440923691,0.39051657915115356,1.5186583995819092,1.5812242031097412,47.3977508,8.5456074,488.2650146484375,47.39775095841669,8.545606915489026,488.29522705078125,488.29522705078125,0.72530675,0.00092925696,-0.0013411856,0.688424,-0.028568742739063176,-0.1847784951338536,87.01115595884853,0.0,0.0,0.0,1,4,False,13,1,0,1,0,1,0,1,1,1,1,1,1,0.0,0.0,0.0,0.0,0.0,0.0,0.0,0.0,0.0,16.200000762939453,-1.0,99.99465942382812,-94.06011199951172,nan,0.017615132,-0.03646836,-0.030212402,0.044401407,-0.05574461,-0.007334875,1,0,1,0,8312190,8311166,8257918,7995448,56,8,0.0,0.0,0.0,0.0,0.0,0.0,0.0,0.0,0.0,0.0,0.0,0.0,0.0,0.0,0.0,0.0,0.0,0.0,0.0,0.0,0.0,0.0,0.0,0.0,0.0,0.0,0.0,0.0,0.0,0.0
1759558879.1098313,0.017793715000152588,-0.036322880536317825,-0.030548095703125,0.043123528361320496,-0.054388757795095444,-0.006583829876035452,0.08674115687608719,-0.1003134474158287,-0.2936888337135315,1.5187458992004395,1.5812242031097412,47.3977508,8.5456074,488.2650146484375,47.39775096002271,8.54560691742185,488.2955627441406,488.2955627441406,0.725267,0.0010926924,-0.001305109,0.68846565,-0.012150102815009606,-0.19467237188638137,87.01772672776579,0.0,0.0,0.0,1,4,False,13,1,0,1,0,1,0,1,1,1,1,1,1,0.0,0.0,0.0,0.0,0.0,0.0,0.0,0.0,0.0,16.200000762939453,-1.0,99.99465942382812,-94.06011199951172,nan,0.017793715,-0.03632288,-0.030548096,0.04312353,-0.054388758,-0.00658383,1,0,1,0,8312190,8311166,8257918,7995448,56,8,0.0,0.0,0.0,0.0,0.0,0.0,0.0,0.0,0.0,0.0,0.0,0.0,0.0,0.0,0.0,0.0,0.0,0.0,0.0,0.0,0.0,0.0,0.0,0.0,0.0,0.0,0.0,0.0,0.0,0.0
1759558879.2097547,0.017730476334691048,-0.036164797842502594,-0.030487060546875,0.0397493802011013,-0.055647965520620346,-0.002021432388573885,-0.11504698544740677,0.0035504198167473078,0.13273580372333527,1.5191155672073364,1.5812242031097412,47.3977508,8.5456074,488.2650146484375,47.397750959454,8.545606919522061,488.2955017089844,488.2955017089844,0.72513604,0.0011862149,-0.001362162,0.6886033,-0.00891780364249981,-0.20679056256749986,87.03948759820216,0.0,0.0,0.0,1,4,False,13,1,0,1,0,1,0,1,1,1,1,1,1,0.0,0.0,0.0,0.0,0.0,0.0,0.0,0.0,0.0,16.200000762939453,-1.0,99.99465942382812,-94.06011199951172,nan,0.017730476,-0.036164798,-0.03048706,0.03974938,-0.055647966,-0.0020214324,1,0,1,0,8312190,8311166,8257918,7995448,56,8,0.0,0.0,0.0,0.0,0.0,0.0,0.0,0.0,0.0,0.0,0.0,0.0,0.0,0.0,0.0,0.0,0.0,0.0,0.0,0.0,0.0,0.0,0.0,0.0,0.0,0.0,0.0,0.0,0.0,0.0
1759558879.309722,0.01747184619307518,-0.03569100797176361,-0.03021240234375,0.042604148387908936,-0.05261689051985741,-0.0050597358494997025,0.014393662102520466,-0.02376011200249195,0.11892150342464447,1.519103765487671,1.5812242031097412,47.3977508,8.5456074,488.2650146484375,47.39775095712809,8.545606925816754,488.29522705078125,488.29522705078125,0.7251434,0.0013405923,-0.0013649781,0.68859535,0.003690330233868474,-0.21920622474758,87.03823745192946,0.0,0.0,0.0,1,4,False,13,1,0,1,0,1,0,1,1,1,1,1,1,0.0,0.0,0.0,0.0,0.0,0.0,0.0,0.0,0.0,16.200000762939453,-1.0,99.99465942382812,-94.06011199951172,nan,0.017471846,-0.035691008,-0.030212402,0.04260415,-0.05261689,-0.005059736,1,0,1,0,8312190,8311166,8257918,7995448,56,8,0.0,0.0,0.0,0.0,0.0,0.0,0.0,0.0,0.0,0.0,0.0,0.0,0.0,0.0,0.0,0.0,0.0,0.0,0.0,0.0,0.0,0.0,0.0,0.0,0.0,0.0,0.0,0.0,0.0,0.0
1759558879.4097042,0.01732209324836731,-0.034737005829811096,-0.030059814453125,0.04586047679185867,-0.05030710995197296,-0.0062997243367135525,0.16887137293815613,-0.07616981863975525,-0.04116957634687424,1.5194545984268188,1.5812242031097412,47.3977508,8.5456074,488.2650146484375,47.397750955781326,8.545606938491417,488.2950744628906,488.2950744628906,0.72499603,0.0016409061,-0.0014603394,0.68874955,0.021066973812092393,-0.2508318145243276,87.06262953884128,0.0,0.0,0.0,1,4,False,13,1,0,1,0,1,0,1,1,1,1,1,1,0.0,0.0,0.0,0.0,0.0,0.0,0.0,0.0,0.0,16.200000762939453,-1.0,99.99465942382812,-94.06011199951172,nan,0.017322093,-0.034737006,-0.030059814,0.045860477,-0.05030711,-0.0062997243,1,0,1,0,8312190,8311166,8257918,7995448,56,8,0.0,0.0,0.0,0.0,0.0,0.0,0.0,0.0,0.0,0.0,0.0,0.0,0.0,0.0,0.0,0.0,0.0,0.0,0.0,0.0,0.0,0.0,0.0,0.0,0.0,0.0,0.0,0.0,0.0,0.0
1759558879.5097005,0.017537036910653114,-0.033920809626579285,-0.030609130859375,0.04448019713163376,-0.04832198843359947,-0.008853885345160961,-0.019907251000404358,-0.0275442935526371,0.34392109513282776,1.5195987224578857,1.5812242031097412,47.3977508,8.5456074,488.2650146484375,47.397750957714365,8.545606949335221,488.2956237792969,488.2956237792969,0.72497195,0.0017479075,-0.0013728507,0.6887748,0.0368528786744869,-0.25200976669298225,87.066596032236,0.0,0.0,0.0,1,4,False,13,1,0,1,0,1,0,1,1,1,1,1,1,0.0,0.0,0.0,0.0,0.0,0.0,0.0,0.0,0.0,16.200000762939453,-1.0,99.99465942382812,-94.06011199951172,nan,0.017537037,-0.03392081,-0.03060913,0.044480197,-0.04832199,-0.008853885,1,0,1,0,8312190,8311166,8257918,7995448,56,8,0.0,0.0,0.0,0.0,0.0,0.0,0.0,0.0,0.0,0.0,0.0,0.0,0.0,0.0,0.0,0.0,0.0,0.0,0.0,0.0,0.0,0.0,0.0,0.0,0.0,0.0,0.0,0.0,0.0,0.0
1759558879.6098018,0.017316263169050217,-0.03267498314380646,-0.03143310546875,0.044725365936756134,-0.04772937670350075,-0.013130745850503445,0.09612828493118286,-0.0758783146739006,-0.0915406197309494,1.5201197862625122,1.5812242031097412,47.3977508,8.5456074,488.2650146484375,47.39775095572889,8.545606965887032,488.29644775390625,488.29644775390625,0.72479415,0.0018917584,-0.0014032876,0.68896145,0.046332664914091826,-0.2659041675972423,87.09610357749848,0.0,0.0,0.0,1,4,False,13,1,0,1,0,1,0,1,1,1,1,1,1,0.0,0.0,0.0,0.0,0.0,0.0,0.0,0.0,0.0,16.200000762939453,-1.0,99.99465942382812,-94.06011199951172,nan,0.017316263,-0.032674983,-0.031433105,0.044725366,-0.047729377,-0.013130746,1,0,1,0,8312190,8311166,8257918,7995448,56,8,0.0,0.0,0.0,0.0,0.0,0.0,0.0,0.0,0.0,0.0,0.0,0.0,0.0,0.0,0.0,0.0,0.0,0.0,0.0,0.0,0.0,0.0,0.0,0.0,0.0,0.0,0.0,0.0,0.0,0.0
1759558879.7097814,0.01758803427219391,-0.03182198107242584,-0.032470703125,0.04239782691001892,-0.04591774195432663,-0.010347914882004261,-0.13476674258708954,-0.010055143386125565,0.2326960563659668,1.519965648651123,1.5812242031097412,47.3977508,8.5456074,488.2650146484375,47.39775095817298,8.545606977219814,488.2974853515625,488.2974853515625,0.72484493,0.001997282,-0.0015618142,0.68890744,0.04260273835233046,-0.28739862339742234,87.08761468472383,0.0,0.0,0.0,1,4,False,13,1,0,1,0,1,0,1,1,1,1,1,1,0.0,0.0,0.0,0.0,0.0,0.0,0.0,0.0,0.0,16.200000762939453,-1.0,99.99465942382812,-94.33782196044922,nan,0.017588034,-0.03182198,-0.032470703,0.042397827,-0.045917742,-0.010347915,1,0,1,0,8312190,8311166,8257918,7995448,56,8,0.0,0.0,0.0,0.0,0.0,0.0,0.0,0.0,0.0,0.0,0.0,0.0,0.0,0.0,0.0,0.0,0.0,0.0,0.0,0.0,0.0,0.0,0.0,0.0,0.0,0.0,0.0,0.0,0.0,0.0
1759558879.8095977,0.017149386927485466,-0.03006063774228096,-0.033355712890625,0.042822107672691345,-0.043048564344644547,-0.014150796458125114,0.15075582265853882,0.03715620934963226,-0.35739827156066895,1.5206446647644043,1.5812242031097412,47.3977508,8.5456074,488.2650146484375,47.39775095422813,8.545607000620665,488.2983703613281,488.2983703613281,0.7246128,0.0019624012,-0.0014552482,0.68915194,0.048025182117122076,-0.2758096534143341,87.12624065955379,0.0,0.0,0.0,1,4,False,13,1,0,1,0,1,0,1,1,1,1,1,1,0.0,0.0,0.0,0.0,0.0,0.0,0.0,0.0,0.0,16.200000762939453,-1.0,99.99465942382812,-94.33782196044922,nan,0.017149387,-0.030060638,-0.033355713,0.042822108,-0.043048564,-0.014150796,1,0,1,0,8312190,8311166,8257918,7995448,56,8,0.0,0.0,0.0,0.0,0.0,0.0,0.0,0.0,0.0,0.0,0.0,0.0,0.0,0.0,0.0,0.0,0.0,0.0,0.0,0.0,0.0,0.0,0.0,0.0,0.0,0.0,0.0,0.0,0.0,0.0
1759558879.9097917,0.017308678478002548,-0.028869489207863808,-0.034454345703125,0.041949305683374405,-0.03958993777632713,-0.011954895220696926,-0.06464002281427383,-0.019593296572566032,-0.03970041498541832,1.5206183195114136,1.5812242031097412,47.3977508,8.5456074,488.2650146484375,47.39775095566067,8.545607016446013,488.2994689941406,488.2994689941406,0.7246203,0.0019430193,-0.0013847057,0.6891443,0.05198952963870782,-0.2684209862651572,87.12501173100684,0.0,0.0,0.0,1,4,False,13,1,0,1,0,1,0,1,1,1,1,1,1,0.0,0.0,0.0,0.0,0.0,0.0,0.0,0.0,0.0,16.200000762939453,-1.0,99.99465942382812,-94.33782196044922,nan,0.017308678,-0.02886949,-0.034454346,0.041949306,-0.039589938,-0.011954895,1,0,1,0,8312190,8311166,8257918,7995448,56,8,0.0,0.0,0.0,0.0,0.0,0.0,0.0,0.0,0.0,0.0,0.0,0.0,0.0,0.0,0.0,0.0,0.0,0.0,0.0,0.0,0.0,0.0,0.0,0.0,0.0,0.0,0.0,0.0,0.0,0.0
1759558880.009634,0.01628994755446911,-0.02643905021250248,-0.03515625,0.043750278651714325,-0.03720211610198021,-0.014440903440117836,0.08861520886421204,-0.07422561943531036,-0.251996785402298,1.5212504863739014,1.5812242031097412,47.3977508,8.5456074,488.2650146484375,47.397750946499016,8.545607048736322,488.3001708984375,488.3001708984375,0.72440195,0.0020955114,-0.0013848075,0.6893733,0.06455516742668951,-0.2804922568377464,87.16123008759496,0.0,0.0,0.0,1,4,False,13,1,0,1,0,1,0,1,1,1,1,1,1,0.0,0.0,0.0,0.0,0.0,0.0,0.0,0.0,0.0,16.200000762939453,-1.0,99.99465942382812,-94.33782196044922,nan,0.016289948,-0.02643905,-0.03515625,0.04375028,-0.037202116,-0.014440903,1,0,1,0,8312190,8311166,8257918,7995448,56,8,0.0,0.0,0.0,0.0,0.0,0.0,0.0,0.0,0.0,0.0,0.0,0.0,0.0,0.0,0.0,0.0,0.0,0.0,0.0,0.0,0.0,0.0,0.0,0.0,0.0,0.0,0.0,0.0,0.0,0.0
1759558880.1095552,0.01673581823706627,-0.02550222910940647,-0.03594970703125,0.04292997717857361,-0.034112509340047836,-0.01122661866247654,0.012813768349587917,-0.029192375019192696,0.1145852655172348,1.5213768482208252,1.5812242031097412,47.3977508,8.5456074,488.2650146484375,47.397750950508815,8.545607061182725,488.30096435546875,488.30096435546875,0.7243558,0.002264981,-0.0014832657,0.68942106,0.070825168252331,-0.30205760395690884,87.16880876944663,0.0,0.0,0.0,1,4,False,13,1,0,1,0,1,0,1,1,1,1,1,1,0.0,0.0,0.0,0.0,0.0,0.0,0.0,0.0,0.0,16.200000762939453,-1.0,99.99465942382812,-94.33782196044922,nan,0.016735818,-0.02550223,-0.035949707,0.042929977,-0.03411251,-0.011226619,1,0,1,0,8312190,8311166,8257918,7995448,56,8,0.0,0.0,0.0,0.0,0.0,0.0,0.0,0.0,0.0,0.0,0.0,0.0,0.0,0.0,0.0,0.0,0.0,0.0,0.0,0.0,0.0,0.0,0.0,0.0,0.0,0.0,0.0,0.0,0.0,0.0
1759558880.2096858,0.01828606240451336,-0.02584921009838581,-0.03717041015625,0.039014238864183426,-0.032034389674663544,-0.012838094495236874,-0.10923096537590027,0.06259655952453613,0.1426590532064438,1.5208473205566406,1.5812242031097412,47.3977508,8.5456074,488.2650146484375,47.3977509644505,8.545607056572813,488.30218505859375,488.30218505859375,0.72454077,0.0020918958,-0.0017382602,0.68922657,0.03639580974800811,-0.3095397025162013,87.13813488729019,0.0,0.0,0.0,1,4,False,13,1,0,1,0,1,0,1,1,1,1,1,1,0.0,0.0,0.0,0.0,0.0,0.0,0.0,0.0,0.0,16.200000762939453,-1.0,99.99465942382812,-94.33782196044922,nan,0.018286062,-0.02584921,-0.03717041,0.03901424,-0.03203439,-0.0128380945,1,0,1,0,8312190,8311166,8257918,7995448,56,8,0.0,0.0,0.0,0.0,0.0,0.0,0.0,0.0,0.0,0.0,0.0,0.0,0.0,0.0,0.0,0.0,0.0,0.0,0.0,0.0,0.0,0.0,0.0,0.0,0.0,0.0,0.0,0.0,0.0,0.0
1759558880.3096383,0.01817191019654274,-0.0255659781396389,-0.037811279296875,0.034269485622644424,-0.03199855238199234,-0.012349211610853672,-0.007328911684453487,-0.0032459809444844723,0.11234916001558304,1.5210578441619873,1.5812242031097412,47.3977508,8.5456074,488.2650146484375,47.3977509634239,8.545607060335776,488.3028259277344,488.3028259277344,0.72445697,0.0020541975,-0.001670458,0.68931496,0.03858419319993474,-0.30093759750913196,87.1520952800517,0.0,0.0,0.0,1,4,False,13,1,0,1,0,1,0,1,1,1,1,1,1,0.0,0.0,0.0,0.0,0.0,0.0,0.0,0.0,0.0,16.200000762939453,-1.0,99.99465942382812,-94.33782196044922,nan,0.01817191,-0.025565978,-0.03781128,0.034269486,-0.031998552,-0.012349212,1,0,1,0,8312190,8311166,8257918,7995448,56,8,0.0,0.0,0.0,0.0,0.0,0.0,0.0,0.0,0.0,0.0,0.0,0.0,0.0,0.0,0.0,0.0,0.0,0.0,0.0,0.0,0.0,0.0,0.0,0.0,0.0,0.0,0.0,0.0,0.0,0.0
1759558880.4097571,0.0169596616178751,-0.025036735460162163,-0.037811279296875,0.029655128717422485,-0.030949367210268974,-0.007681506685912609,-0.08426406979560852,-0.06458396464586258,0.3969985842704773,1.520906925201416,1.5812242031097412,47.3977508,8.5456074,488.2650146484375,47.3977509525219,8.54560706736719,488.3028259277344,488.3028259277344,0.72452027,0.0020896986,-0.0015734041,0.6892485,0.049224915590227084,-0.2956801482186285,87.1415476417911,0.0,0.0,0.0,1,4,False,13,1,0,1,0,1,0,1,1,1,1,1,1,0.0,0.0,0.0,0.0,0.0,0.0,0.0,0.0,0.0,16.200000762939453,-1.0,99.99465942382812,-94.33782196044922,nan,0.016959662,-0.025036735,-0.03781128,0.029655129,-0.030949367,-0.0076815067,1,0,1,0,8312190,8311166,8257918,7995448,56,8,0.0,0.0,0.0,0.0,0.0,0.0,0.0,0.0,0.0,0.0,0.0,0.0,0.0,0.0,0.0,0.0,0.0,0.0,0.0,0.0,0.0,0.0,0.0,0.0,0.0,0.0,0.0,0.0,0.0,0.0
1759558880.509649,0.015481826849281788,-0.0243618693202734,-0.03778076171875,0.027335597202181816,-0.02764500118792057,-0.008633537217974663,-0.02468377910554409,0.052018146961927414,-0.11240364611148834,1.5212445259094238,1.5812242031097412,47.3977508,8.5456074,488.2650146484375,47.39775093923141,8.545607076333306,488.30279541015625,488.30279541015625,0.7243991,0.0021359099,-0.0015185571,0.68937594,0.057341739164261295,-0.29478650215156044,87.16168478679762,0.0,0.0,0.0,1,4,False,13,1,0,1,0,1,0,1,1,1,1,1,1,0.0,0.0,0.0,0.0,0.0,0.0,0.0,0.0,0.0,16.200000762939453,-1.0,99.99465942382812,-94.33782196044922,nan,0.015481827,-0.02436187,-0.03778076,0.027335597,-0.027645001,-0.008633537,1,0,1,0,8312190,8311166,8257918,7995448,56,8,0.0,0.0,0.0,0.0,0.0,0.0,0.0,0.0,0.0,0.0,0.0,0.0,0.0,0.0,0.0,0.0,0.0,0.0,0.0,0.0,0.0,0.0,0.0,0.0,0.0,0.0,0.0,0.0,0.0,0.0
1759558880.6096594,0.013467553071677685,-0.02318122610449791,-0.037811279296875,0.02673390507698059,-0.026900654658675194,-0.01184103824198246,0.13651810586452484,-0.014791009947657585,0.19594885408878326,1.5213825702667236,1.5812242031097412,47.3977508,8.5456074,488.2650146484375,47.39775092111661,8.545607092019079,488.3028259277344,488.3028259277344,0.72435516,0.0022334286,-0.0014130283,0.689422,0.07375471797453562,-0.2937348792741008,87.16893750564367,0.0,0.0,0.0,1,4,False,13,1,0,1,0,1,0,1,1,1,1,1,1,0.0,0.0,0.0,0.0,0.0,0.0,0.0,0.0,0.0,16.200000762939453,-1.0,99.99465942382812,-94.33782196044922,nan,0.013467553,-0.023181226,-0.03781128,0.026733905,-0.026900655,-0.011841038,1,0,1,0,8312190,8311166,8257918,7995448,56,8,0.0,0.0,0.0,0.0,0.0,0.0,0.0,0.0,0.0,0.0,0.0,0.0,0.0,0.0,0.0,0.0,0.0,0.0,0.0,0.0,0.0,0.0,0.0,0.0,0.0,0.0,0.0,0.0,0.0,0.0
1759558880.709684,0.012668709270656109,-0.022185448557138443,-0.0377197265625,0.02895280346274376,-0.028988637030124664,-0.011781972832977772,0.07068230211734772,-0.035184286534786224,-0.20513169467449188,1.521321415901184,1.5812242031097412,47.3977508,8.5456074,488.2650146484375,47.397750913932434,8.545607105248779,488.302734375,488.302734375,0.72435814,0.002286693,-0.0013829488,0.6894187,0.08055369562428934,-0.2954457575536742,87.16839995892984,0.0,0.0,0.0,1,4,False,13,1,0,1,0,1,0,1,1,1,1,1,1,0.0,0.0,0.0,0.0,0.0,0.0,0.0,0.0,0.0,16.200000762939453,-1.0,99.99465942382812,-94.61553192138672,nan,0.012668709,-0.022185449,-0.037719727,0.028952803,-0.028988637,-0.011781973,1,0,1,0,8312190,8311166,8257918,7995448,56,8,0.0,0.0,0.0,0.0,0.0,0.0,0.0,0.0,0.0,0.0,0.0,0.0,0.0,0.0,0.0,0.0,0.0,0.0,0.0,0.0,0.0,0.0,0.0,0.0,0.0,0.0,0.0,0.0,0.0,0.0
1759558880.809726,0.01293541956692934,-0.020252812653779984,-0.037445068359375,0.027313806116580963,-0.02657422609627247,-0.009601804427802563,0.05385356768965721,0.0015746717108413577,-0.01635262556374073,1.521698236465454,1.5812242031097412,47.3977508,8.5456074,488.2650146484375,47.39775091633102,8.545607130925383,488.3024597167969,488.3024597167969,0.7242474,0.0021485046,-0.0014817809,0.6895353,0.06122806888669558,-0.29274211428442143,87.1868887909119,0.0,0.0,0.0,1,4,False,13,1,0,1,0,1,0,1,1,1,1,1,1,0.0,0.0,0.0,0.0,0.0,0.0,0.0,0.0,0.0,16.200000762939453,-1.0,99.99465942382812,-94.61553192138672,nan,0.01293542,-0.020252813,-0.03744507,0.027313806,-0.026574226,-0.009601804,1,0,1,0,8312190,8311166,8257918,7995448,56,8,0.0,0.0,0.0,0.0,0.0,0.0,0.0,0.0,0.0,0.0,0.0,0.0,0.0,0.0,0.0,0.0,0.0,0.0,0.0,0.0,0.0,0.0,0.0,0.0,0.0,0.0,0.0,0.0,0.0,0.0
1759558880.9096038,0.01357258204370737,-0.019050005823373795,-0.037353515625,0.031087080016732216,-0.025899438187479973,-0.010891539976000786,0.012242285534739494,-0.010188973508775234,-0.22166360914707184,1.521779179573059,1.5812242031097412,47.3977508,8.5456074,488.2650146484375,47.39775092206116,8.545607146905608,488.3023681640625,488.3023681640625,0.72420216,0.0020191625,-0.0013665598,0.68958354,0.05957966495711437,-0.2729634862859992,87.19448795848535,0.0,0.0,0.0,1,4,False,13,1,0,1,0,1,0,1,1,1,1,1,1,0.0,0.0,0.0,0.0,0.0,0.0,0.0,0.0,0.0,16.200000762939453,-1.0,99.99465942382812,-94.61553192138672,nan,0.013572582,-0.019050006,-0.037353516,0.03108708,-0.025899438,-0.01089154,1,0,1,0,8312190,8311166,8257918,7995448,56,8,0.0,0.0,0.0,0.0,0.0,0.0,0.0,0.0,0.0,0.0,0.0,0.0,0.0,0.0,0.0,0.0,0.0,0.0,0.0,0.0,0.0,0.0,0.0,0.0,0.0,0.0,0.0,0.0,0.0,0.0
1759558881.0096967,0.013735669665038586,-0.017385991290211678,-0.036834716796875,0.030982812866568565,-0.02424047887325287,-0.009930707514286041,-0.010548064485192299,0.028275614604353905,-0.16698379814624786,1.5218274593353271,1.5812242031097412,47.3977508,8.5456074,488.2650146484375,47.39775092352784,8.545607169013373,488.3018493652344,488.3018493652344,0.7242036,0.0018933583,-0.0013182698,0.6895824,0.05295574693520914,-0.25901472895487726,87.19429262573865,0.0,0.0,0.0,1,4,False,13,1,0,1,0,1,0,1,1,1,1,1,1,0.0,0.0,0.0,0.0,0.0,0.0,0.0,0.0,0.0,16.200000762939453,-1.0,99.99465942382812,-94.61553192138672,nan,0.01373567,-0.017385991,-0.036834717,0.030982813,-0.024240479,-0.0099307075,1,0,1,0,8312190,8311166,8257918,7995448,56,8,0.0,0.0,0.0,0.0,0.0,0.0,0.0,0.0,0.0,0.0,0.0,0.0,0.0,0.0,0.0,0.0,0.0,0.0,0.0,0.0,0.0,0.0,0.0,0.0,0.0,0.0,0.0,0.0,0.0,0.0
1759558881.1096287,0.014399298466742039,-0.016752880066633224,-0.036651611328125,0.03197294846177101,-0.0235833041369915,-0.009144182316958904,0.013625686056911945,0.0375794991850853,0.253827303647995,1.5220504999160767,1.5812242031097412,47.3977508,8.5456074,488.2650146484375,47.397750929496,8.545607177424742,488.3016662597656,488.3016662597656,0.72410876,0.0018674349,-0.0010605055,0.6896825,0.07114065609398791,-0.2355846938572736,87.21006692180595,0.0,0.0,0.0,1,4,False,13,1,0,1,0,1,0,1,1,1,1,1,1,0.0,0.0,0.0,0.0,0.0,0.0,0.0,0.0,0.0,16.200000762939453,-1.0,99.99465942382812,-94.61553192138672,nan,0.0143992985,-0.01675288,-0.03665161,0.03197295,-0.023583304,-0.009144182,1,0,1,0,8312190,8311166,8257918,7995448,56,8,0.0,0.0,0.0,0.0,0.0,0.0,0.0,0.0,0.0,0.0,0.0,0.0,0.0,0.0,0.0,0.0,0.0,0.0,0.0,0.0,0.0,0.0,0.0,0.0,0.0,0.0,0.0,0.0,0.0,0.0
1759558881.2102215,0.014105825684964657,-0.015853991732001305,-0.03619384765625,0.034183353185653687,-0.02309565804898739,-0.010365486145019531,0.09514469653367996,-0.07003486901521683,-0.25254812836647034,1.5221644639968872,1.5812242031097412,47.3977508,8.5456074,488.2650146484375,47.39775092685673,8.545607189367189,488.30120849609375,488.30120849609375,0.7240929,0.0019851793,-0.0010679066,0.68969876,0.0803203288959313,-0.2455061913651381,87.21263945301361,0.0,0.0,0.0,1,4,False,13,1,0,1,0,1,0,1,1,1,1,1,1,0.0,0.0,0.0,0.0,0.0,0.0,0.0,0.0,0.0,16.200000762939453,-1.0,99.99465942382812,-94.61553192138672,nan,0.014129249,-0.015809655,-0.03616333,0.033941098,-0.02281663,-0.0072124647,1,0,1,0,8312190,8311166,8257918,7995448,56,8,0.0,0.0,0.0,0.0,0.0,0.0,0.0,0.0,0.0,0.0,0.0,0.0,0.0,0.0,0.0,0.0,0.0,0.0,0.0,0.0,0.0,0.0,0.0,0.0,0.0,0.0,0.0,0.0,0.0,0.0
1759558881.3096101,0.014887322671711445,-0.015710871666669846,-0.035797119140625,0.030322350561618805,-0.02198594994843006,-0.0054975710809230804,-0.07962437719106674,0.005617016926407814,0.27417856454849243,1.5218251943588257,1.5812242031097412,47.3977508,8.5456074,488.2650146484375,47.3977509338849,8.545607191268653,488.3008117675781,488.3008117675781,0.7242092,0.002239697,-0.00088243117,0.6895762,0.11614035984461596,-0.2502122090581294,87.19320400472239,0.0,0.0,0.0,1,4,False,13,1,0,1,0,1,0,1,1,1,1,1,1,0.0,0.0,0.0,0.0,0.0,0.0,0.0,0.0,0.0,16.200000762939453,-1.0,99.99465942382812,-94.61553192138672,nan,0.014887323,-0.015710872,-0.03579712,0.03032235,-0.02198595,-0.005497571,1,0,1,0,8312190,8311166,8257918,7995448,56,8,0.0,0.0,0.0,0.0,0.0,0.0,0.0,0.0,0.0,0.0,0.0,0.0,0.0,0.0,0.0,0.0,0.0,0.0,0.0,0.0,0.0,0.0,0.0,0.0,0.0,0.0,0.0,0.0,0.0,0.0
1759558881.4097445,0.016315503045916557,-0.016606152057647705,-0.036102294921875,0.029508117586374283,-0.02291344851255417,-0.012422588653862476,0.06715729832649231,0.06392388045787811,-0.1681535392999649,1.5212422609329224,1.5812242031097412,47.3977508,8.5456074,488.2650146484375,47.39775094672885,8.545607179374146,488.3011169433594,488.3011169433594,0.72440463,0.0021623124,-0.00086611276,0.68937117,0.11107649024765798,-0.242711604774639,87.16076340974293,0.0,0.0,0.0,1,4,False,13,1,0,1,0,1,0,1,1,1,1,1,1,0.0,0.0,0.0,0.0,0.0,0.0,0.0,0.0,0.0,16.200000762939453,-1.0,99.99465942382812,-94.61553192138672,nan,0.016315503,-0.016606152,-0.036102295,0.029508118,-0.022913449,-0.012422589,1,0,1,0,8312190,8311166,8257918,7995448,56,8,0.0,0.0,0.0,0.0,0.0,0.0,0.0,0.0,0.0,0.0,0.0,0.0,0.0,0.0,0.0,0.0,0.0,0.0,0.0,0.0,0.0,0.0,0.0,0.0,0.0,0.0,0.0,0.0,0.0,0.0
1759558881.5097926,0.016392270103096962,-0.01684175245463848,-0.03631591796875,0.02189870923757553,-0.02444937266409397,-0.007070176303386688,-0.07184036076068878,-0.033420853316783905,0.20338174700737,1.521216869354248,1.5812242031097412,47.3977508,8.5456074,488.2650146484375,47.397750947419226,8.545607176244019,488.30133056640625,488.30133056640625,0.7244144,0.0023082204,-0.00072732667,0.6893605,0.13415571695819134,-0.24271501989986605,87.15905354498608,0.0,0.0,0.0,1,4,False,13,1,0,1,0,1,0,1,1,1,1,1,1,0.0,0.0,0.0,0.0,0.0,0.0,0.0,0.0,0.0,16.200000762939453,-1.0,99.99465942382812,-94.61553192138672,nan,0.01639227,-0.016841752,-0.036315918,0.02189871,-0.024449373,-0.0070701763,1,0,1,0,8312190,8311166,8257918,7995448,56,8,0.0,0.0,0.0,0.0,0.0,0.0,0.0,0.0,0.0,0.0,0.0,0.0,0.0,0.0,0.0,0.0,0.0,0.0,0.0,0.0,0.0,0.0,0.0,0.0,0.0,0.0,0.0,0.0,0.0,0.0
1759558881.6096673,0.016008825972676277,-0.01713857427239418,-0.036376953125,0.01998012512922287,-0.024692364037036896,-0.007452857680618763,-0.05288762226700783,-0.049339063465595245,0.33197876811027527,1.520742416381836,1.5812242031097412,47.3977508,8.5456074,488.2650146484375,47.397750943970834,8.545607172300501,488.3013916015625,488.3013916015625,0.7245767,0.0022230237,-0.00072752574,0.6891902,0.12712303892273386,-0.2359715366357151,87.13212068060929,0.0,0.0,0.0,1,4,False,13,1,0,1,0,1,0,1,1,1,1,1,1,0.0,0.0,0.0,0.0,0.0,0.0,0.0,0.0,0.0,16.200000762939453,-1.0,99.99465942382812,-94.61553192138672,nan,0.016008826,-0.017138574,-0.036376953,0.019980125,-0.024692364,-0.0074528577,1,0,1,0,8312190,8311166,8257918,7995448,56,8,0.0,0.0,0.0,0.0,0.0,0.0,0.0,0.0,0.0,0.0,0.0,0.0,0.0,0.0,0.0,0.0,0.0,0.0,0.0,0.0,0.0,0.0,0.0,0.0,0.0,0.0,0.0,0.0,0.0,0.0
1759558881.7096853,0.015267954207956791,-0.017069656401872635,-0.036590576171875,0.01640413887798786,-0.023254089057445526,-0.0067285941913723946,0.04122445359826088,-0.02253727987408638,-0.007479916792362928,1.5210541486740112,1.5812242031097412,47.3977508,8.5456074,488.2650146484375,47.397750937308004,8.54560717321612,488.3016052246094,488.3016052246094,0.72446024,0.0022649015,-0.0008274498,0.6893124,0.12266688680839909,-0.24759635532467478,87.15145823663913,0.0,0.0,0.0,1,4,False,13,1,0,1,0,1,0,1,1,1,1,1,1,0.0,0.0,0.0,0.0,0.0,0.0,0.0,0.0,0.0,16.200000762939453,-1.0,99.99465942382812,-94.89324188232422,nan,0.015267954,-0.017069656,-0.036590576,0.016404139,-0.023254089,-0.006728594,1,0,1,0,8312190,8311166,8257918,7995448,56,8,0.0,0.0,0.0,0.0,0.0,0.0,0.0,0.0,0.0,0.0,0.0,0.0,0.0,0.0,0.0,0.0,0.0,0.0,0.0,0.0,0.0,0.0,0.0,0.0,0.0,0.0,0.0,0.0,0.0,0.0
1759558881.8096375,0.014284838922321796,-0.016829226166009903,-0.037017822265625,0.013934456743299961,-0.024890027940273285,-0.009095391258597374,-0.047408390790224075,-0.05280949920415878,-0.24448473751544952,1.52120840549469,1.5812242031097412,47.3977508,8.5456074,488.2650146484375,47.39775092846663,8.545607176410432,488.3020324707031,488.3020324707031,0.7244226,0.0020627591,-0.0008713031,0.68935263,0.10240843726816536,-0.23527549178489762,87.15783482896803,0.0,0.0,0.0,1,4,False,13,1,0,1,0,1,0,1,1,1,1,1,1,0.0,0.0,0.0,0.0,0.0,0.0,0.0,0.0,0.0,16.200000762939453,-1.0,99.99465942382812,-94.89324188232422,nan,0.014229254,-0.016862005,-0.03704834,0.013779713,-0.023866117,-0.005614785,1,0,1,0,8312190,8311166,8257918,7995448,56,8,0.0,0.0,0.0,0.0,0.0,0.0,0.0,0.0,0.0,0.0,0.0,0.0,0.0,0.0,0.0,0.0,0.0,0.0,0.0,0.0,0.0,0.0,0.0,0.0,0.0,0.0,0.0,0.0,0.0,0.0
1759558881.9097488,0.01296218391507864,-0.01674138382077217,-0.037261962890625,0.012952880002558231,-0.02447730302810669,-0.00738341873511672,0.010402952320873737,-0.10451127588748932,-0.11662951856851578,1.521395206451416,1.5812242031097412,47.3977508,8.5456074,488.2650146484375,47.39775091657172,8.545607177577475,488.3022766113281,488.3022766113281,0.72433984,0.0019376937,-0.0007157991,0.68944,0.10428461555495375,-0.21249969177847658,87.17163223162015,0.0,0.0,0.0,1,4,False,13,1,0,1,0,1,0,1,1,1,1,1,1,0.0,0.0,0.0,0.0,0.0,0.0,0.0,0.0,0.0,16.200000762939453,-1.0,99.99465942382812,-94.89324188232422,nan,0.012962184,-0.016741384,-0.037261963,0.01295288,-0.024477303,-0.0073834187,1,0,1,0,8312190,8311166,8257918,7995448,56,8,0.0,0.0,0.0,0.0,0.0,0.0,0.0,0.0,0.0,0.0,0.0,0.0,0.0,0.0,0.0,0.0,0.0,0.0,0.0,0.0,0.0,0.0,0.0,0.0,0.0,0.0,0.0,0.0,0.0,0.0
1759558882.0098684,0.011080717667937279,-0.016771869733929634,-0.0374755859375,0.011045309714972973,-0.02879570610821247,-0.006331325974315405,0.046221356838941574,-0.03883952274918556,0.23671238124370575,1.5217258930206299,1.5812242031097412,47.3977508,8.5456074,488.2650146484375,47.397750899651285,8.545607177172458,488.302490234375,488.302490234375,0.72423863,0.0019360789,-0.0007762567,0.68954635,0.09934226457631647,-0.2174049093614165,87.18846823519262,0.0,0.0,0.0,1,4,False,13,1,0,1,0,1,0,1,1,1,1,1,1,0.0,0.0,0.0,0.0,0.0,0.0,0.0,0.0,0.0,16.200000762939453,-1.0,99.99465942382812,-94.89324188232422,nan,0.011080718,-0.01677187,-0.037475586,0.01104531,-0.028795706,-0.006331326,1,0,1,0,8312190,8311166,8257918,7995448,56,8,0.0,0.0,0.0,0.0,0.0,0.0,0.0,0.0,0.0,0.0,0.0,0.0,0.0,0.0,0.0,0.0,0.0,0.0,0.0,0.0,0.0,0.0,0.0,0.0,0.0,0.0,0.0,0.0,0.0,0.0
1759558882.109706,0.009894597344100475,-0.016818080097436905,-0.037261962890625,0.010808122344315052,-0.02203541062772274,-0.009064852260053158,0.04498980566859245,0.033523354679346085,-0.4848567545413971,1.5217982530593872,1.5812242031097412,47.3977508,8.5456074,488.2650146484375,47.39775088898425,8.545607176558516,488.3022766113281,488.3022766113281,0.7242068,0.0020057373,-0.0007917486,0.6895795,0.10388898324319344,-0.2241995306201902,87.19371178001325,0.0,0.0,0.0,1,4,False,13,1,0,1,0,1,0,1,1,1,1,1,1,0.0,0.0,0.0,0.0,0.0,0.0,0.0,0.0,0.0,16.200000762939453,-1.0,99.99465942382812,-94.89324188232422,nan,0.009894597,-0.01681808,-0.037261963,0.010808122,-0.02203541,-0.009064852,1,0,1,0,8312190,8311166,8257918,7995448,56,8,0.0,0.0,0.0,0.0,0.0,0.0,0.0,0.0,0.0,0.0,0.0,0.0,0.0,0.0,0.0,0.0,0.0,0.0,0.0,0.0,0.0,0.0,0.0,0.0,0.0,0.0,0.0,0.0,0.0,0.0
1759558882.2097027,0.00864016730338335,-0.016227276995778084,-0.03680419921875,0.008280739188194275,-0.023830773308873177,-0.009125251322984695,-0.027074208483099937,-0.016355792060494423,-0.03603612631559372,1.5221850872039795,1.5812242031097412,47.3977508,8.5456074,488.2650146484375,47.39775087770288,8.545607184407803,488.30181884765625,488.30181884765625,0.7240797,0.0021297862,-0.0008352042,0.6897126,0.11070611703637245,-0.23762859203324185,87.21477835511335,0.0,0.0,0.0,1,4,False,13,1,0,1,0,1,0,1,1,1,1,1,1,0.0,0.0,0.0,0.0,0.0,0.0,0.0,0.0,0.0,16.200000762939453,-1.0,99.99465942382812,-94.89324188232422,nan,0.008640167,-0.016227277,-0.0368042,0.008280739,-0.023830773,-0.009125251,1,0,1,0,8312190,8311166,8257918,7995448,56,8,0.0,0.0,0.0,0.0,0.0,0.0,0.0,0.0,0.0,0.0,0.0,0.0,0.0,0.0,0.0,0.0,0.0,0.0,0.0,0.0,0.0,0.0,0.0,0.0,0.0,0.0,0.0,0.0,0.0,0.0
1759558882.3096712,0.007863505743443966,-0.01665835827589035,-0.036895751953125,0.008842608891427517,-0.02529219537973404,-0.013799368403851986,0.025060156360268593,-0.08679831773042679,-0.30701744556427,1.5220544338226318,1.5812242031097412,47.3977508,8.5456074,488.2650146484375,47.3977508707182,8.54560717868055,488.3019104003906,488.3019104003906,0.7241359,0.0022030033,-0.00094775157,0.68965316,0.10790669675221862,-0.25274500633724006,87.20539600329111,0.0,0.0,0.0,1,4,False,13,1,0,1,0,1,0,1,1,1,1,1,1,0.0,0.0,0.0,0.0,0.0,0.0,0.0,0.0,0.0,16.200000762939453,-1.0,99.99465942382812,-94.89324188232422,nan,0.007863506,-0.016658358,-0.036895752,0.008842609,-0.025292195,-0.013799368,1,0,1,0,8312190,8311166,8257918,7995448,56,8,0.0,0.0,0.0,0.0,0.0,0.0,0.0,0.0,0.0,0.0,0.0,0.0,0.0,0.0,0.0,0.0,0.0,0.0,0.0,0.0,0.0,0.0,0.0,0.0,0.0,0.0,0.0,0.0,0.0,0.0
1759558882.4096453,0.007044232916086912,-0.017935341224074364,-0.037139892578125,0.009205236099660397,-0.02727837674319744,-0.009785829111933708,0.05107254907488823,-0.06533177196979523,-0.13572628796100616,1.5218428373336792,1.5812242031097412,47.3977508,8.5456074,488.2650146484375,47.39775086335031,8.545607161714823,488.3021545410156,488.3021545410156,0.7241979,0.002041186,-0.0009970748,0.6895885,0.09060283116417032,-0.2440415559899259,87.19517477734185,0.0,0.0,0.0,1,4,False,13,1,0,1,0,1,0,1,1,1,1,1,1,0.0,0.0,0.0,0.0,0.0,0.0,0.0,0.0,0.0,16.200000762939453,-1.0,99.99465942382812,-94.89324188232422,nan,0.007044233,-0.017935341,-0.037139893,0.009205236,-0.027278377,-0.009785829,1,0,1,0,8312190,8311166,8257918,7995448,56,8,0.0,0.0,0.0,0.0,0.0,0.0,0.0,0.0,0.0,0.0,0.0,0.0,0.0,0.0,0.0,0.0,0.0,0.0,0.0,0.0,0.0,0.0,0.0,0.0,0.0,0.0,0.0,0.0,0.0,0.0
1759558882.5096927,0.006953751668334007,-0.019435033202171326,-0.03729248046875,0.009999769739806652,-0.028500255197286606,-0.009642473421990871,0.011827890761196613,-0.0915529653429985,0.23777781426906586,1.5216031074523926,1.5812242031097412,47.3977508,8.5456074,488.2650146484375,47.39775086253658,8.545607141790223,488.30230712890625,488.30230712890625,0.7243058,0.0017187216,-0.0011188813,0.6894758,0.054252492242988073,-0.2286599457846349,87.17737343246345,0.0,0.0,0.0,1,4,False,13,1,0,1,0,1,0,1,1,1,1,1,1,0.0,0.0,0.0,0.0,0.0,0.0,0.0,0.0,0.0,16.200000762939453,-1.0,99.99465942382812,-94.89324188232422,nan,0.0069537517,-0.019435033,-0.03729248,0.00999977,-0.028500255,-0.009642473,1,0,1,0,8312190,8311166,8257918,7995448,56,8,0.0,0.0,0.0,0.0,0.0,0.0,0.0,0.0,0.0,0.0,0.0,0.0,0.0,0.0,0.0,0.0,0.0,0.0,0.0,0.0,0.0,0.0,0.0,0.0,0.0,0.0,0.0,0.0,0.0,0.0
1759558882.6096344,0.006964439991861582,-0.019925223663449287,-0.036895751953125,0.008835689164698124,-0.029739417135715485,-0.012315268628299236,0.09525088220834732,-0.03399356082081795,-0.44919174909591675,1.521340012550354,1.5812242031097412,47.3977508,8.5456074,488.2650146484375,47.39775086263271,8.54560713527766,488.3019104003906,488.3019104003906,0.72437215,0.0016892821,-0.0010590913,0.6894063,0.056554196186817854,-0.22136599455071673,87.16636486090131,0.0,0.0,0.0,1,4,False,13,1,0,1,0,1,0,1,1,1,1,1,1,0.0,0.0,0.0,0.0,0.0,0.0,0.0,0.0,0.0,16.200000762939453,-1.0,99.99465942382812,-94.89324188232422,nan,0.00696444,-0.019925224,-0.036895752,0.008835689,-0.029739417,-0.012315269,1,0,1,0,8312190,8311166,8257918,7995448,56,8,0.0,0.0,0.0,0.0,0.0,0.0,0.0,0.0,0.0,0.0,0.0,0.0,0.0,0.0,0.0,0.0,0.0,0.0,0.0,0.0,0.0,0.0,0.0,0.0,0.0,0.0,0.0,0.0,0.0,0.0
1759558882.7097187,0.007197994738817215,-0.021281413733959198,-0.03692626953125,0.008189640007913113,-0.029057618230581284,-0.008238669484853745,0.03276344761252403,-0.022188061848282814,0.4103993773460388,1.5211431980133057,1.5812242031097412,47.3977508,8.5456074,488.2650146484375,47.39775086473312,8.545607117259589,488.30194091796875,488.30194091796875,0.72445697,0.0018288057,-0.0012238434,0.6893165,0.05515062448843227,-0.24605722728245955,87.15220385084531,0.0,0.0,0.0,1,4,False,13,1,0,1,0,1,0,1,1,1,1,1,1,0.0,0.0,0.0,0.0,0.0,0.0,0.0,0.0,0.0,16.200000762939453,-1.0,99.99465942382812,-95.17095184326172,nan,0.0071979947,-0.021281414,-0.03692627,0.00818964,-0.029057618,-0.0082386695,1,0,1,0,8312190,8311166,8257918,7995448,56,8,0.0,0.0,0.0,0.0,0.0,0.0,0.0,0.0,0.0,0.0,0.0,0.0,0.0,0.0,0.0,0.0,0.0,0.0,0.0,0.0,0.0,0.0,0.0,0.0,0.0,0.0,0.0,0.0,0.0,0.0
1759558882.810352,0.007745527196675539,-0.023466136306524277,-0.0369873046875,0.009147177450358868,-0.030035104602575302,-0.0094633549451828,0.0069945151917636395,0.023894909769296646,-0.23043666779994965,1.521461009979248,1.5812242031097412,47.3977508,8.5456074,488.2650146484375,47.397750869657195,8.545607088233824,488.302001953125,488.302001953125,0.7243299,0.0019108718,-0.0013299598,0.68944967,0.053533293351870334,-0.2613590021156996,87.17329446623584,0.0,0.0,0.0,1,4,False,13,1,0,1,0,1,0,1,1,1,1,1,1,0.0,0.0,0.0,0.0,0.0,0.0,0.0,0.0,0.0,16.200000762939453,-1.0,99.99465942382812,-95.17095184326172,nan,0.007745527,-0.023466136,-0.036987305,0.009147177,-0.030035105,-0.009463355,1,0,1,0,8312190,8311166,8257918,7995448,56,8,0.0,0.0,0.0,0.0,0.0,0.0,0.0,0.0,0.0,0.0,0.0,0.0,0.0,0.0,0.0,0.0,0.0,0.0,0.0,0.0,0.0,0.0,0.0,0.0,0.0,0.0,0.0,0.0,0.0,0.0
1759558882.9097488,0.008270848542451859,-0.024437827989459038,-0.037109375,0.007460243068635464,-0.028693150728940964,-0.009242362342774868,-0.08466973155736923,-0.010271956212818623,0.09929574280977249,1.5214149951934814,1.5812242031097412,47.3977508,8.5456074,488.2650146484375,47.39775087438152,8.545607075324149,488.3021240234375,488.3021240234375,0.7243468,0.0018055376,-0.0011933321,0.68943244,0.05559042524688372,-0.24169523152852868,87.17053604514447,0.0,0.0,0.0,1,4,False,13,1,0,1,0,1,0,1,1,1,1,1,1,0.0,0.0,0.0,0.0,0.0,0.0,0.0,0.0,0.0,16.200000762939453,-1.0,99.99465942382812,-95.17095184326172,nan,0.008270849,-0.024437828,-0.037109375,0.007460243,-0.02869315,-0.009242362,1,0,1,0,8312190,8311166,8257918,7995448,56,8,0.0,0.0,0.0,0.0,0.0,0.0,0.0,0.0,0.0,0.0,0.0,0.0,0.0,0.0,0.0,0.0,0.0,0.0,0.0,0.0,0.0,0.0,0.0,0.0,0.0,0.0,0.0,0.0,0.0,0.0
1759558883.0096972,0.008602214977145195,-0.02488701231777668,-0.03741455078125,0.004235108382999897,-0.0297051090747118,-0.010804235935211182,-0.003015480935573578,0.07523147761821747,0.26001501083374023,1.5214852094650269,1.5812242031097412,47.3977508,8.5456074,488.2650146484375,47.397750877361574,8.545607069356368,488.30242919921875,488.30242919921875,0.7243214,0.0019736046,-0.0010805201,0.68945885,0.07844438790738047,-0.24561206026958307,87.17468281436545,0.0,0.0,0.0,1,4,False,13,1,0,1,0,1,0,1,1,1,1,1,1,0.0,0.0,0.0,0.0,0.0,0.0,0.0,0.0,0.0,16.200000762939453,-1.0,99.99465942382812,-95.17095184326172,nan,0.008602215,-0.024887012,-0.03741455,0.0042351084,-0.02970511,-0.010804236,1,0,1,0,8312190,8311166,8257918,7995448,56,8,0.0,0.0,0.0,0.0,0.0,0.0,0.0,0.0,0.0,0.0,0.0,0.0,0.0,0.0,0.0,0.0,0.0,0.0,0.0,0.0,0.0,0.0,0.0,0.0,0.0,0.0,0.0,0.0,0.0,0.0
1759558883.1096766,0.008595203049480915,-0.02476002462208271,-0.0374755859375,0.002482327166944742,-0.030008643865585327,-0.009094201028347015,-0.019464880228042603,-0.004232336767017841,-0.053952910006046295,1.5212492942810059,1.5812242031097412,47.3977508,8.5456074,488.2650146484375,47.39775087729851,8.545607071043516,488.302490234375,488.302490234375,0.724427,0.0019716548,-0.0011005396,0.68934786,0.07673873201435522,-0.247107885525408,87.15713101713123,0.0,0.0,0.0,1,4,False,13,1,0,1,0,1,0,1,1,1,1,1,1,0.0,0.0,0.0,0.0,0.0,0.0,0.0,0.0,0.0,16.200000762939453,-1.0,99.99465942382812,-95.17095184326172,nan,0.008595203,-0.024760025,-0.037475586,0.0024823272,-0.030008644,-0.009094201,1,0,1,0,8312190,8311166,8257918,7995448,56,8,0.0,0.0,0.0,0.0,0.0,0.0,0.0,0.0,0.0,0.0,0.0,0.0,0.0,0.0,0.0,0.0,0.0,0.0,0.0,0.0,0.0,0.0,0.0,0.0,0.0,0.0,0.0,0.0,0.0,0.0
1759558883.2095246,0.008562942035496235,-0.023817570880055428,-0.03741455078125,0.005220720078796148,-0.03121824748814106,-0.011363719590008259,0.029039591550827026,-0.04158412665128708,-0.21221627295017242,1.5210437774658203,1.5812242031097412,47.3977508,8.5456074,488.2650146484375,47.397750877008384,8.545607083564743,488.30242919921875,488.30242919921875,0.7244527,0.0021274106,-0.0011568085,0.6893204,0.08523376136658714,-0.26407952707852084,87.15279514394551,0.0,0.0,0.0,1,4,False,13,1,0,1,0,1,0,1,1,1,1,1,1,0.0,0.0,0.0,0.0,0.0,0.0,0.0,0.0,0.0,16.200000762939453,-1.0,99.99465942382812,-95.17095184326172,nan,0.008562942,-0.02381757,-0.03741455,0.00522072,-0.031218247,-0.01136372,1,0,1,0,8312190,8311166,8257918,7995448,56,8,0.0,0.0,0.0,0.0,0.0,0.0,0.0,0.0,0.0,0.0,0.0,0.0,0.0,0.0,0.0,0.0,0.0,0.0,0.0,0.0,0.0,0.0,0.0,0.0,0.0,0.0,0.0,0.0,0.0,0.0
1759558883.3096128,0.008812331594526768,-0.023419898003339767,-0.037689208984375,0.010604034177958965,-0.028928782790899277,-0.010400276631116867,0.0696815475821495,0.031259935349226,-0.1275450885295868,1.5208595991134644,1.5812242031097412,47.3977508,8.5456074,488.2650146484375,47.3977508792512,8.545607088848149,488.3027038574219,488.3027038574219,0.72453094,0.0021975476,-0.0011240582,0.6892379,0.09367366491192464,-0.266890206775437,87.13973577733377,0.0,0.0,0.0,1,4,False,13,1,0,1,0,1,0,1,1,1,1,1,1,0.0,0.0,0.0,0.0,0.0,0.0,0.0,0.0,0.0,16.200000762939453,-1.0,99.99465942382812,-95.17095184326172,nan,0.008812332,-0.023419898,-0.03768921,0.010604034,-0.028928783,-0.010400277,1,0,1,0,8312190,8311166,8257918,7995448,56,8,0.0,0.0,0.0,0.0,0.0,0.0,0.0,0.0,0.0,0.0,0.0,0.0,0.0,0.0,0.0,0.0,0.0,0.0,0.0,0.0,0.0,0.0,0.0,0.0,0.0,0.0,0.0,0.0,0.0,0.0
1759558883.4095771,0.008800068870186806,-0.02284802868962288,-0.038116455078125,0.010960820131003857,-0.028767479583621025,-0.012156789191067219,-0.05283945053815842,-0.12321581691503525,0.15093384683132172,1.5205217599868774,1.5812242031097412,47.3977508,8.5456074,488.2650146484375,47.39775087914092,8.545607096445886,488.3031311035156,488.3031311035156,0.7246896,0.0020153963,-0.0008091732,0.6890721,0.1034722314663359,-0.22633640917067488,87.11345253406502,0.0,0.0,0.0,1,4,False,13,1,0,1,0,1,0,1,1,1,1,1,1,0.0,0.0,0.0,0.0,0.0,0.0,0.0,0.0,0.0,16.200000762939453,-1.0,99.99465942382812,-95.17095184326172,nan,0.008815754,-0.022854595,-0.038146973,0.0105002895,-0.028663373,-0.011398468,1,0,1,0,8312190,8311166,8257918,7995448,56,8,0.0,0.0,0.0,0.0,0.0,0.0,0.0,0.0,0.0,0.0,0.0,0.0,0.0,0.0,0.0,0.0,0.0,0.0,0.0,0.0,0.0,0.0,0.0,0.0,0.0,0.0,0.0,0.0,0.0,0.0
1759558883.5096536,0.008674604818224907,-0.0222890954464674,-0.038818359375,0.01139023806899786,-0.0296836756169796,-0.01668938249349594,-0.054495684802532196,-0.0590793713927269,-0.4425393044948578,1.5205336809158325,1.5812242031097412,47.3977508,8.5456074,488.2650146484375,47.39775087801259,8.545607103871756,488.3038330078125,488.3038330078125,0.72463834,0.0018387261,-0.00079163193,0.68912643,0.09017010177793819,-0.21093622145489202,87.12204842919604,0.0,0.0,0.0,1,4,False,13,1,0,1,0,1,0,1,1,1,1,1,1,0.0,0.0,0.0,0.0,0.0,0.0,0.0,0.0,0.0,16.200000762939453,-1.0,99.99465942382812,-95.17095184326172,nan,0.008674605,-0.022289095,-0.03881836,0.011390238,-0.029683676,-0.016689382,1,0,1,0,8312190,8311166,8257918,7995448,56,8,0.0,0.0,0.0,0.0,0.0,0.0,0.0,0.0,0.0,0.0,0.0,0.0,0.0,0.0,0.0,0.0,0.0,0.0,0.0,0.0,0.0,0.0,0.0,0.0,0.0,0.0,0.0,0.0,0.0,0.0
1759558883.6095629,0.00791699718683958,-0.020581962540745735,-0.03961181640625,0.012526487000286579,-0.02861119993031025,-0.014577127061784267,-0.06371670216321945,-0.05782335624098778,-0.030749941244721413,1.5203149318695068,1.5812242031097412,47.3977508,8.5456074,488.2650146484375,47.397750871199264,8.545607126552362,488.30462646484375,488.30462646484375,0.72472507,0.0018676417,-0.00094689545,0.68903506,0.08033879703923721,-0.22610225992313343,87.10762951635239,0.0,0.0,0.0,1,4,False,13,1,0,1,0,1,0,1,1,1,1,1,1,0.0,0.0,0.0,0.0,0.0,0.0,0.0,0.0,0.0,16.200000762939453,-1.0,99.99465942382812,-95.17095184326172,nan,0.007916997,-0.020581963,-0.039611816,0.012526487,-0.0286112,-0.014577127,1,0,1,0,8312190,8311166,8257918,7995448,56,8,0.0,0.0,0.0,0.0,0.0,0.0,0.0,0.0,0.0,0.0,0.0,0.0,0.0,0.0,0.0,0.0,0.0,0.0,0.0,0.0,0.0,0.0,0.0,0.0,0.0,0.0,0.0,0.0,0.0,0.0
1759558883.7095747,0.007859461009502411,-0.02008112147450447,-0.04046630859375,0.014350389130413532,-0.030092285946011543,-0.018411757424473763,0.050580669194459915,-0.047266967594623566,-0.27503490447998047,1.5203057527542114,1.5812242031097412,47.3977508,8.5456074,488.2650146484375,47.397750870681826,8.545607133206428,488.30548095703125,488.30548095703125,0.72474605,0.0017986412,-0.00075313007,0.68901336,0.08991389609410982,-0.20455963765586835,87.1041625917716,0.0,0.0,0.0,1,4,False,13,1,0,1,0,1,0,1,1,1,1,1,1,0.0,0.0,0.0,0.0,0.0,0.0,0.0,0.0,0.0,16.200000762939453,-1.0,99.99465942382812,-95.44866180419922,nan,0.007859461,-0.020081121,-0.04046631,0.014350389,-0.030092286,-0.018411757,1,0,1,0,8312190,8311166,8257918,7995448,56,8,0.0,0.0,0.0,0.0,0.0,0.0,0.0,0.0,0.0,0.0,0.0,0.0,0.0,0.0,0.0,0.0,0.0,0.0,0.0,0.0,0.0,0.0,0.0,0.0,0.0,0.0,0.0,0.0,0.0,0.0
1759558883.8096614,0.007886402308940887,-0.019414056092500687,-0.041534423828125,0.008983189240098,-0.027791013941168785,-0.018905945122241974,-0.062375135719776154,-0.04811260104179382,-0.14380039274692535,1.520107626914978,1.5812242031097412,47.3977508,8.5456074,488.2650146484375,47.39775087092411,8.545607142068933,488.3065490722656,488.3065490722656,0.72479653,0.0018476921,-0.0007289799,0.6889602,0.09590952100199043,-0.2064197689302985,87.09575397789288,0.0,0.0,0.0,1,4,False,13,1,0,1,0,1,0,1,1,1,1,1,1,0.0,0.0,0.0,0.0,0.0,0.0,0.0,0.0,0.0,16.200000762939453,-1.0,99.99465942382812,-95.44866180419922,nan,0.007886402,-0.019414056,-0.041534424,0.008983189,-0.027791014,-0.018905945,1,0,1,0,8312190,8311166,8257918,7995448,56,8,0.0,0.0,0.0,0.0,0.0,0.0,0.0,0.0,0.0,0.0,0.0,0.0,0.0,0.0,0.0,0.0,0.0,0.0,0.0,0.0,0.0,0.0,0.0,0.0,0.0,0.0,0.0,0.0,0.0,0.0
1759558883.9096665,0.008124291896820068,-0.019589031115174294,-0.042694091796875,0.010135309770703316,-0.02611696533858776,-0.017870016396045685,0.017422432079911232,-0.05659571290016174,0.13017886877059937,1.5198078155517578,1.5812242031097412,47.3977508,8.5456074,488.2650146484375,47.39775087306351,8.545607139744238,488.3077087402344,488.3077087402344,0.724896,0.0018554024,-0.0009040758,0.6888553,0.0827582613870647,-0.22155929568428812,87.07919710983816,0.0,0.0,0.0,1,4,False,13,1,0,1,0,1,0,1,1,1,1,1,1,0.0,0.0,0.0,0.0,0.0,0.0,0.0,0.0,0.0,16.200000762939453,-1.0,99.99465942382812,-95.44866180419922,nan,0.008124292,-0.019589031,-0.04269409,0.01013531,-0.026116965,-0.017870016,1,0,1,0,8312190,8311166,8257918,7995448,56,8,0.0,0.0,0.0,0.0,0.0,0.0,0.0,0.0,0.0,0.0,0.0,0.0,0.0,0.0,0.0,0.0,0.0,0.0,0.0,0.0,0.0,0.0,0.0,0.0,0.0,0.0,0.0,0.0,0.0,0.0
1759558884.0101194,0.00867382064461708,-0.020573919638991356,-0.04388427734375,0.0070014456287026405,-0.026979774236679077,-0.016327954828739166,0.009322776459157467,-0.045984748750925064,-0.2786121070384979,1.5200392007827759,1.5812242031097412,47.3977508,8.5456074,488.2650146484375,47.39775087800553,8.545607126659222,488.30889892578125,488.30889892578125,0.72481966,0.0019798912,-0.0009748205,0.6889351,0.08748869509409422,-0.23727232523945133,87.09182866134502,0.0,0.0,0.0,1,4,False,13,1,0,1,0,1,0,1,1,1,1,1,1,0.0,0.0,0.0,0.0,0.0,0.0,0.0,0.0,0.0,16.200000762939453,-1.0,99.99465942382812,-95.44866180419922,nan,0.008673821,-0.02057392,-0.043884277,0.0070014456,-0.026979774,-0.016327955,1,0,1,0,8312190,8311166,8257918,7995448,56,8,0.0,0.0,0.0,0.0,0.0,0.0,0.0,0.0,0.0,0.0,0.0,0.0,0.0,0.0,0.0,0.0,0.0,0.0,0.0,0.0,0.0,0.0,0.0,0.0,0.0,0.0,0.0,0.0,0.0,0.0
1759558884.1096768,0.008157572709023952,-0.020778240635991096,-0.044891357421875,0.0043762256391346455,-0.027745364233851433,-0.014823942445218563,-0.17182819545269012,-0.014770210720598698,0.3831297755241394,1.520012378692627,1.5812242031097412,47.3977508,8.5456074,488.2650146484375,47.39775087336281,8.54560712394464,488.3099060058594,488.3099060058594,0.7248137,0.0019579204,-0.001064627,0.68894136,0.07857181396649178,-0.24299770155739397,87.09283638520455,0.0,0.0,0.0,1,4,False,13,1,0,1,0,1,0,1,1,1,1,1,1,0.0,0.0,0.0,0.0,0.0,0.0,0.0,0.0,0.0,16.200000762939453,-1.0,99.99465942382812,-95.44866180419922,nan,0.008157573,-0.02077824,-0.044891357,0.0043762256,-0.027745364,-0.014823942,1,0,1,0,8312190,8311166,8257918,7995448,56,8,0.0,0.0,0.0,0.0,0.0,0.0,0.0,0.0,0.0,0.0,0.0,0.0,0.0,0.0,0.0,0.0,0.0,0.0,0.0,0.0,0.0,0.0,0.0,0.0,0.0,0.0,0.0,0.0,0.0,0.0
1759558884.2097456,0.007262246683239937,-0.020871968939900398,-0.046142578125,0.006223689764738083,-0.02496783807873726,-0.02024049498140812,0.0954299122095108,0.021768249571323395,-0.28258979320526123,1.5195878744125366,1.5812242031097412,47.3977508,8.5456074,488.2650146484375,47.39775086531095,8.545607122699403,488.3111572265625,488.3111572265625,0.72497535,0.0018909579,-0.0011856529,0.68877125,0.06351346140106123,-0.24774848853762407,87.0659747693754,0.0,0.0,0.0,1,4,False,13,1,0,1,0,1,0,1,1,1,1,1,1,0.0,0.0,0.0,0.0,0.0,0.0,0.0,0.0,0.0,16.200000762939453,-1.0,99.99465942382812,-95.44866180419922,nan,0.0072622467,-0.020871969,-0.046142578,0.0062236898,-0.024967838,-0.020240495,1,0,1,0,8312190,8311166,8257918,7995448,56,8,0.0,0.0,0.0,0.0,0.0,0.0,0.0,0.0,0.0,0.0,0.0,0.0,0.0,0.0,0.0,0.0,0.0,0.0,0.0,0.0,0.0,0.0,0.0,0.0,0.0,0.0,0.0,0.0,0.0,0.0
1759558884.3096595,0.006709280423820019,-0.020545974373817444,-0.046905517578125,0.005056631751358509,-0.02548886463046074,-0.015339204110205173,-0.04888930544257164,-0.007050016894936562,0.24593201279640198,1.5191187858581543,1.5812242031097412,47.3977508,8.5456074,488.2650146484375,47.39775086033801,8.545607127030488,488.3119201660156,488.3119201660156,0.72514206,0.0018204105,-0.001290889,0.6885958,0.04940726656361327,-0.25091105615046144,87.03827149685536,0.0,0.0,0.0,1,4,False,13,1,0,1,0,1,0,1,1,1,1,1,1,0.0,0.0,0.0,0.0,0.0,0.0,0.0,0.0,0.0,16.200000762939453,-1.0,99.99465942382812,-95.44866180419922,nan,0.0067092804,-0.020545974,-0.046905518,0.0050566318,-0.025488865,-0.015339204,1,0,1,0,8312190,8311166,8257918,7995448,56,8,0.0,0.0,0.0,0.0,0.0,0.0,0.0,0.0,0.0,0.0,0.0,0.0,0.0,0.0,0.0,0.0,0.0,0.0,0.0,0.0,0.0,0.0,0.0,0.0,0.0,0.0,0.0,0.0,0.0,0.0
1759558884.4096963,0.006350069306790829,-0.020238924771547318,-0.04736328125,0.006660840008407831,-0.026127494871616364,-0.017611393705010414,-0.1144666075706482,0.055796027183532715,0.1672450304031372,1.5191044807434082,1.5812242031097412,47.3977508,8.5456074,488.2650146484375,47.39775085710754,8.545607131109884,488.3123779296875,488.3123779296875,0.7251422,0.0017672746,-0.0012202758,0.6885959,0.05056380416529822,-0.24085057509915755,87.03827379077957,0.0,0.0,0.0,1,4,False,13,1,0,1,0,1,0,1,1,1,1,1,1,0.0,0.0,0.0,0.0,0.0,0.0,0.0,0.0,0.0,16.200000762939453,-1.0,99.99465942382812,-95.44866180419922,nan,0.0063500693,-0.020238925,-0.04736328,0.00666084,-0.026127495,-0.017611394,1,0,1,0,8312190,8311166,8257918,7995448,56,8,0.0,0.0,0.0,0.0,0.0,0.0,0.0,0.0,0.0,0.0,0.0,0.0,0.0,0.0,0.0,0.0,0.0,0.0,0.0,0.0,0.0,0.0,0.0,0.0,0.0,0.0,0.0,0.0,0.0,0.0
1759558884.50973,0.006117131561040878,-0.020056603476405144,-0.04754638671875,0.0052479347214102745,-0.02752905711531639,-0.016604527831077576,-0.07450614869594574,0.00636344775557518,-0.0029620712157338858,1.5193874835968018,1.5812242031097412,47.3977508,8.5456074,488.2650146484375,47.39775085501268,8.545607133532172,488.31256103515625,488.31256103515625,0.7250507,0.0018725278,-0.0011783954,0.688692,0.06258202837969379,-0.24568404472172342,87.05344563714367,0.0,0.0,0.0,1,4,False,13,1,0,1,0,1,0,1,1,1,1,1,1,0.0,0.0,0.0,0.0,0.0,0.0,0.0,0.0,0.0,16.200000762939453,-1.0,99.99465942382812,-95.44866180419922,nan,0.0061171316,-0.020056603,-0.047546387,0.0052479347,-0.027529057,-0.016604528,1,0,1,0,8312190,8311166,8257918,7995448,56,8,0.0,0.0,0.0,0.0,0.0,0.0,0.0,0.0,0.0,0.0,0.0,0.0,0.0,0.0,0.0,0.0,0.0,0.0,0.0,0.0,0.0,0.0,0.0,0.0,0.0,0.0,0.0,0.0,0.0,0.0
1759558884.60967,0.0057701654732227325,-0.019744575023651123,-0.047607421875,0.006407720502465963,-0.026949068531394005,-0.018044913187623024,-0.04474999010562897,0.01731189899146557,0.3759464919567108,1.5193949937820435,1.5812242031097412,47.3977508,8.5456074,488.2650146484375,47.39775085189234,8.545607137677708,488.3126220703125,488.3126220703125,0.7250419,0.0018588036,-0.0011650382,0.68870133,0.06249275040198768,-0.24349198759212745,87.05492358501458,0.0,0.0,0.0,1,4,False,13,1,0,1,0,1,0,1,1,1,1,1,1,0.0,0.0,0.0,0.0,0.0,0.0,0.0,0.0,0.0,16.200000762939453,-1.0,99.99465942382812,-95.44866180419922,nan,0.0057701655,-0.019744575,-0.047607422,0.0064077205,-0.026949069,-0.018044913,1,0,1,0,8312190,8311166,8257918,7995448,56,8,0.0,0.0,0.0,0.0,0.0,0.0,0.0,0.0,0.0,0.0,0.0,0.0,0.0,0.0,0.0,0.0,0.0,0.0,0.0,0.0,0.0,0.0,0.0,0.0,0.0,0.0,0.0,0.0,0.0,0.0
1759558884.709799,0.0058334763161838055,-0.019488733261823654,-0.047576904296875,0.009457908570766449,-0.025729533284902573,-0.01745676063001156,0.028941374272108078,-0.03881365433335304,-0.19772954285144806,1.5194131135940552,1.5812242031097412,47.3977508,8.5456074,488.2650146484375,47.397750852461705,8.545607141076779,488.3125915527344,488.3125915527344,0.72503394,0.001649832,-0.0011109783,0.6887103,0.049394159634848354,-0.22250909931710453,87.05632283425018,0.0,0.0,0.0,1,4,False,13,1,0,1,0,1,0,1,1,1,1,1,1,0.0,0.0,0.0,0.0,0.0,0.0,0.0,0.0,0.0,16.200000762939453,-1.0,99.99465942382812,-95.72637176513672,nan,0.0058334763,-0.019488733,-0.047576904,0.009457909,-0.025729533,-0.01745676,1,0,1,0,8312190,8311166,8257918,7995448,56,8,0.0,0.0,0.0,0.0,0.0,0.0,0.0,0.0,0.0,0.0,0.0,0.0,0.0,0.0,0.0,0.0,0.0,0.0,0.0,0.0,0.0,0.0,0.0,0.0,0.0,0.0,0.0,0.0,0.0,0.0
1759558884.8096282,0.006225045770406723,-0.018758809193968773,-0.046783447265625,0.01174665056169033,-0.022569121792912483,-0.014737027697265148,0.021824300289154053,0.08876468241214752,0.1152348667383194,1.5194720029830933,1.5812242031097412,47.3977508,8.5456074,488.2650146484375,47.397750855983176,8.545607150774385,488.3117980957031,488.3117980957031,0.72501594,0.0016376999,-0.0012007476,0.68872917,0.04129553618342566,-0.22901100963579676,87.05933101563882,0.0,0.0,0.0,1,4,False,13,1,0,1,0,1,0,1,1,1,1,1,1,0.0,0.0,0.0,0.0,0.0,0.0,0.0,0.0,0.0,16.200000762939453,-1.0,99.99465942382812,-95.72637176513672,nan,0.006225046,-0.01875881,-0.046783447,0.011746651,-0.022569122,-0.014737028,1,0,1,0,8312190,8311166,8257918,7995448,56,8,0.0,0.0,0.0,0.0,0.0,0.0,0.0,0.0,0.0,0.0,0.0,0.0,0.0,0.0,0.0,0.0,0.0,0.0,0.0,0.0,0.0,0.0,0.0,0.0,0.0,0.0,0.0,0.0,0.0,0.0
1759558884.909842,0.007015364710241556,-0.018412506207823753,-0.04632568359375,0.015161503106355667,-0.02397901378571987,-0.019872456789016724,-0.030791042372584343,-0.0641474723815918,-0.35996127128601074,1.5190719366073608,1.5812242031097412,47.3977508,8.5456074,488.2650146484375,47.397750863090685,8.545607155375302,488.31134033203125,488.31134033203125,0.72515494,0.0014811151,-0.001189514,0.6885832,0.029216322345007366,-0.21571371843037426,87.0362613858616,0.0,0.0,0.0,1,4,False,13,1,0,1,0,1,0,1,1,1,1,1,1,0.0,0.0,0.0,0.0,0.0,0.0,0.0,0.0,0.0,16.200000762939453,-1.0,99.99465942382812,-95.72637176513672,nan,0.0070153647,-0.018412506,-0.046325684,0.015161503,-0.023979014,-0.019872457,1,0,1,0,8312190,8311166,8257918,7995448,56,8,0.0,0.0,0.0,0.0,0.0,0.0,0.0,0.0,0.0,0.0,0.0,0.0,0.0,0.0,0.0,0.0,0.0,0.0,0.0,0.0,0.0,0.0,0.0,0.0,0.0,0.0,0.0,0.0,0.0,0.0
1759558885.0095096,0.007931401953101158,-0.01746942289173603,-0.045074462890625,0.014073475264012814,-0.02245110645890236,-0.015749385580420494,-0.03859282657504082,0.005790162365883589,-0.0017746350495144725,1.5188415050506592,1.5812242031097412,47.3977508,8.5456074,488.2650146484375,47.3977508713288,8.545607167904922,488.3100891113281,488.3100891113281,0.725233,0.0016210084,-0.0012526084,0.68850046,0.035888925610260226,-0.23199102394171955,87.0232048055663,0.0,0.0,0.0,1,4,False,13,1,0,1,0,1,0,1,1,1,1,1,1,0.0,0.0,0.0,0.0,0.0,0.0,0.0,0.0,0.0,16.200000762939453,-1.0,99.99465942382812,-95.72637176513672,nan,0.007931402,-0.017469423,-0.045074463,0.014073475,-0.022451106,-0.015749386,1,0,1,0,8312190,8311166,8257918,7995448,56,8,0.0,0.0,0.0,0.0,0.0,0.0,0.0,0.0,0.0,0.0,0.0,0.0,0.0,0.0,0.0,0.0,0.0,0.0,0.0,0.0,0.0,0.0,0.0,0.0,0.0,0.0,0.0,0.0,0.0,0.0
1759558885.1096485,0.008907036855816841,-0.01704011857509613,-0.04437255859375,0.018506208434700966,-0.021623115986585617,-0.01860884204506874,0.12322284281253815,-0.010191306471824646,-0.28143683075904846,1.5186421871185303,1.5812242031097412,47.3977508,8.5456074,488.2650146484375,47.3977508801029,8.545607173608568,488.30938720703125,488.30938720703125,0.72529066,0.0015686186,-0.0011195065,0.6884401,0.04205439414718634,-0.21679257583859116,87.0136324967817,0.0,0.0,0.0,1,4,False,13,1,0,1,0,1,0,1,1,1,1,1,1,0.0,0.0,0.0,0.0,0.0,0.0,0.0,0.0,0.0,16.200000762939453,-1.0,99.99465942382812,-95.72637176513672,nan,0.008907037,-0.017040119,-0.04437256,0.018506208,-0.021623116,-0.018608842,1,0,1,0,8312190,8311166,8257918,7995448,56,8,0.0,0.0,0.0,0.0,0.0,0.0,0.0,0.0,0.0,0.0,0.0,0.0,0.0,0.0,0.0,0.0,0.0,0.0,0.0,0.0,0.0,0.0,0.0,0.0,0.0,0.0,0.0,0.0,0.0,0.0
1759558885.2097018,0.008940213359892368,-0.015473387204110622,-0.043365478515625,0.0166588444262743,-0.020360544323921204,-0.01595129445195198,0.08182000368833542,-0.020122481510043144,-0.1581292450428009,1.518141269683838,1.5812242031097412,47.3977508,8.5456074,488.2650146484375,47.39775088040127,8.545607194423816,488.3083801269531,488.3083801269531,0.72547424,0.001516503,-0.0010427266,0.68824685,0.04383507602498198,-0.20628814019273956,86.98308537766118,0.0,0.0,0.0,1,4,False,13,1,0,1,0,1,0,1,1,1,1,1,1,0.0,0.0,0.0,0.0,0.0,0.0,0.0,0.0,0.0,16.200000762939453,-1.0,99.99465942382812,-95.72637176513672,nan,0.008940213,-0.015473387,-0.04336548,0.016658844,-0.020360544,-0.015951294,1,0,1,0,8312190,8311166,8257918,7995448,56,8,0.0,0.0,0.0,0.0,0.0,0.0,0.0,0.0,0.0,0.0,0.0,0.0,0.0,0.0,0.0,0.0,0.0,0.0,0.0,0.0,0.0,0.0,0.0,0.0,0.0,0.0,0.0,0.0,0.0,0.0
