timestamp_sec,drone_x,drone_y,drone_z,drone_vx,drone_vy,drone_vz,drone_heading,drone_roll_deg,drone_pitch_deg,drone_yaw_deg,drone_armed,drone_nav_state,target_x,target_y,target_z,bbox_area,bbox_confidence,boundary_violation,rover_x,rover_y,rover_z,rover_yaw_deg,rover_cmd_linear_x,rover_cmd_angular_z,wheel_1_pos,wheel_2_pos,wheel_3_pos,wheel_4_pos,distance_3d,distance_horizontal,relative_x,relative_y,relative_z
1759474874.6151822,74.00859832763672,76.21914672851562,-4.98126220703125,-0.00017229275545105338,0.0018412253120914102,-0.007960008457303047,1.9202994108200073,0.34497573323310055,0.13581230232817074,110.022398287166,1,14,0.0,0.0,0.0,0.0,0.0,0.0,0.0,0.0,0.0,0.0,0.0,0.0,0.0,0.0,0.0,0.0,106.35527221355632,106.23855681646126,74.00859832763672,76.21914672851562,-4.98126220703125
1759474875.6151164,73.96578216552734,76.20996856689453,-4.99090576171875,-0.0024162677582353354,0.0035282426979392767,-0.0010692692594602704,1.919479489326477,0.21069264561635145,-0.03915859813808456,109.97710828859083,1,14,0.0,0.0,0.0,0.0,0.0,0.0,0.0,0.0,0.0,0.0,0.0,0.0,0.0,0.0,0.0,0.0,106.3193556256228,106.20214800240763,73.96578216552734,76.20996856689453,-4.99090576171875
1759474876.6150732,73.9267578125,76.20584106445312,-4.992156982421875,-0.008397353813052177,0.003937222994863987,-0.0006808795733377337,1.919479489326477,0.13943072518079389,0.14177482150638568,109.97541657682878,1,14,0.0,0.0,0.0,0.0,0.0,0.0,0.0,0.0,0.0,0.0,0.0,0.0,0.0,0.0,0.0,0.0,106.28930973689623,106.1720101204113,73.9267578125,76.20584106445312,-4.992156982421875
1759474877.6153178,73.90187072753906,76.18207550048828,-4.99151611328125,-0.0009324544807896018,0.0028257009107619524,-0.006545025855302811,1.9187449216842651,0.12495938927670366,0.13882160961000256,109.93940781849278,1,14,0.0,0.0,0.0,0.0,0.0,0.0,0.0,0.0,0.0,0.0,0.0,0.0,0.0,0.0,0.0,0.0,106.25493098064267,106.13762351113762,73.90187072753906,76.18207550048828,-4.99151611328125
1759474878.6150231,73.89034271240234,76.1618881225586,-4.996551513671875,-0.0028431001119315624,-0.0008583663729950786,0.00025479617761448026,1.9179911613464355,0.039809621487195614,0.049594189849266786,109.88986452697688,1,14,0.0,0.0,0.0,0.0,0.0,0.0,0.0,0.0,0.0,0.0,0.0,0.0,0.0,0.0,0.0,0.0,106.23267611981814,106.1151070703385,73.89034271240234,76.1618881225586,-4.996551513671875
1759474879.615098,73.88593292236328,76.1595230102539,-4.994781494140625,-0.005313062574714422,-0.008340157568454742,-0.006234530359506607,1.9184592962265015,-0.07645774038812034,-0.07918114760177043,109.91338305578147,1,14,0.0,0.0,0.0,0.0,0.0,0.0,0.0,0.0,0.0,0.0,0.0,0.0,0.0,0.0,0.0,0.0,106.22783002175828,106.11033893526756,73.88593292236328,76.1595230102539,-4.994781494140625
1759474880.615049,73.89974212646484,76.17729187011719,-4.99652099609375,0.0033630153629928827,-0.0059057013131678104,-0.003624241566285491,1.9190990924835205,-0.023330246358586035,-0.18401166902619853,109.9513651493472,1,14,0.0,0.0,0.0,0.0,0.0,0.0,0.0,0.0,0.0,0.0,0.0,0.0,0.0,0.0,0.0,0.0,106.25025602363239,106.13270788509556,73.89974212646484,76.17729187011719,-4.99652099609375
1759474881.61502,73.9201431274414,76.20700073242188,-4.992034912109375,0.001005060039460659,-0.008676663972437382,-0.0064779664389789104,1.919744610786438,-0.14594153720768382,-0.2922592723151267,109.98855746332976,1,14,-0.051562500000000004,1.1833333333333333,0.0,1334.0,1.0,1.0,0.0,0.0,0.0,0.0,0.0,0.0,0.0,0.0,0.0,0.0,106.28553491974573,106.16823687248824,73.9201431274414,76.20700073242188,-4.992034912109375
1759474882.6150205,73.93350219726562,76.25434112548828,-4.992645263671875,0.003909336868673563,-0.002332479925826192,-0.005071933846920729,1.9190458059310913,-0.06124259791975393,-0.2665406894020566,109.94532932214902,1,14,-0.046875,1.1916666666666667,0.0,1519.0,1.0,1.0,0.0,0.0,0.0,0.0,0.0,0.0,0.0,0.0,0.0,0.0,106.3288003993475,106.21152144487628,73.93350219726562,76.25434112548828,-4.992645263671875
1759474883.6152341,73.96204376220703,76.25152587890625,-4.93280029296875,0.10207084566354752,-0.2584504187107086,0.2463049292564392,1.916933298110962,0.018802527910260405,5.437490683991301,109.83218899551164,1,14,-0.0421875,1.2416666666666667,0.0,1334.0,1.0,1.0,0.0,0.0,0.0,0.0,0.0,0.0,0.0,0.0,0.0,0.0,106.34383684574509,106.22937030945884,73.96204376220703,76.25152587890625,-4.93280029296875
1759474884.615052,74.0758285522461,75.99313354492188,-4.570037841796875,0.12405668944120407,-0.3190975487232208,0.4307415783405304,1.91596519947052,0.18624838610871933,1.8248372952924774,109.77672269922049,1,14,-0.037500000000000006,1.0416666666666665,0.0,1519.0,1.0,1.0,0.0,0.0,0.0,0.0,0.0,0.0,0.0,0.0,0.0,0.0,106.22179610397079,106.12344096229677,74.0758285522461,75.99313354492188,-4.570037841796875
1759474885.615144,74.15068054199219,75.76123809814453,-4.143463134765625,0.07872874289751053,-0.20939308404922485,0.4218828082084656,1.9119740724563599,0.2915270789865271,1.037191203301156,109.54804627795336,1,14,-0.032812499999999994,0.95,0.0,1232.0,1.0,1.0,0.0,0.0,0.0,0.0,0.0,0.0,0.0,0.0,0.0,0.0,106.09079559393211,106.00985153750723,74.15068054199219,75.76123809814453,-4.143463134765625
1759474886.6151438,74.17733001708984,75.5833969116211,-3.733184814453125,0.062632255256176,-0.17907428741455078,0.38784825801849365,1.9114924669265747,0.2337970230629152,1.455775595833176,109.52045224309987,1,14,-0.037500000000000006,0.8666666666666666,0.0,1232.0,1.0,1.0,0.0,0.0,0.0,0.0,0.0,0.0,0.0,0.0,0.0,0.0,105.9672725232785,105.90149279950643,74.17733001708984,75.5833969116211,-3.733184814453125
1759474887.615149,74.20108795166016,75.41246032714844,-3.357269287109375,0.0658963993191719,-0.1716579794883728,0.3492629826068878,1.9162794351577759,0.4418985426269447,1.422908600112724,109.79472848077361,1,14,-0.0421875,0.7666666666666666,0.0,1000.0,1.0,1.0,0.0,0.0,0.0,0.0,0.0,0.0,0.0,0.0,0.0,0.0,105.84947748038206,105.79622217170017,74.20108795166016,75.41246032714844,-3.357269287109375
1759474888.6153321,74.21234130859375,75.24169921875,-3.010772705078125,0.06502445042133331,-0.1740657538175583,0.3152063488960266,1.9210162162780762,0.447653162772996,1.4795372950334824,110.06612387555057,1,14,-0.051562500000000004,0.6916666666666667,0.0,1107.0,1.0,1.0,0.0,0.0,0.0,0.0,0.0,0.0,0.0,0.0,0.0,0.0,105.72535011107648,105.68247207473931,74.21234130859375,75.24169921875,-3.010772705078125
1759474889.6151886,74.20713806152344,75.07241821289062,-2.789764404296875,0.012620348483324051,-0.053672950714826584,0.09134065359830856,1.9271754026412964,0.3467065290632466,-5.686956521162028,110.41506578937232,1,14,-0.060937500000000006,0.5083333333333333,0.0,1000.0,1.0,0.0,0.0,0.0,0.0,0.0,0.0,0.0,0.0,0.0,0.0,0.0,105.59521817319492,105.55835976185473,74.20713806152344,75.07241821289062,-2.789764404296875
1759474890.615359,74.10640716552734,75.18604278564453,-2.72149658203125,-0.07836103439331055,0.19960881769657135,0.027806684374809265,1.9396913051605225,0.34965405804405125,-1.8587380972399243,111.1361266768793,1,14,-0.0796875,0.6666666666666666,0.0,1161.0,1.0,0.0,0.0,0.0,0.0,0.0,0.0,0.0,0.0,0.0,0.0,0.0,105.60353761306342,105.56846410149052,74.10640716552734,75.18604278564453,-2.72149658203125
1759474891.6151423,73.96823120117188,75.39535522460938,-2.697174072265625,-0.09462753683328629,0.2298147827386856,0.0063459137454628944,1.954054594039917,0.25810419412923274,-2.263612336585709,111.95908266217172,1,14,-0.10312500000000001,0.6416666666666666,0.0,1066.0,1.0,0.0,0.0,0.0,0.0,0.0,0.0,0.0,0.0,0.0,0.0,0.0,105.65525810129446,105.62082567597665,73.96823120117188,75.39535522460938,-2.697174072265625
1759474892.6151254,73.84452819824219,75.64610290527344,-2.683197021484375,-0.08676796406507492,0.22238250076770782,-0.00552692636847496,1.9584553241729736,0.29178442927931103,-2.1061131548640897,112.21122605672747,1,14,-0.10781249999999999,0.6666666666666666,0.0,1334.0,1.0,0.0,0.0,0.0,0.0,0.0,0.0,0.0,0.0,0.0,0.0,0.0,105.74756155974617,105.71351488611191,73.84452819824219,75.64610290527344,-2.683197021484375
1759474893.6153219,73.72381591796875,75.87779998779297,-2.675445556640625,-0.06427665799856186,0.19545844197273254,-0.005747177638113499,1.9615895748138428,-0.545681773302299,0.4928164981698291,112.39080604966695,1,14,-0.12187500000000001,0.7333333333333333,0.0,1600.0,1.0,0.0,0.0,0.0,0.0,0.0,0.0,0.0,0.0,0.0,0.0,0.0,105.8291055117665,105.79528139049519,73.72381591796875,75.87779998779297,-2.675445556640625
1759474894.615114,73.67108154296875,76.09162139892578,-2.674468994140625,0.001544033526442945,0.2458430379629135,-0.009195868857204914,1.959396481513977,-0.5092570366450159,-0.6406256480814188,112.26515150539683,1,14,-0.12187500000000001,0.6916666666666667,0.0,1925.0,1.0,0.0,0.0,0.0,0.0,0.0,0.0,0.0,0.0,0.0,0.0,0.0,105.94581580802911,105.91205362388273,73.67108154296875,76.09162139892578,-2.674468994140625
1759474895.6150596,73.64269256591797,76.2741470336914,-2.681732177734375,-0.03444404900074005,0.23227114975452423,-0.005100667476654053,1.955612063407898,0.9798067567920978,-2.0890245240527046,112.04831992450204,1,14,-0.11249999999999999,0.7,0.0,1632.0,1.0,0.0,0.0,0.0,0.0,0.0,0.0,0.0,0.0,0.0,0.0,0.0,106.05745311645279,106.02354301793298,73.64269256591797,76.2741470336914,-2.681732177734375
1759474896.6151996,73.56192016601562,76.45464324951172,-2.682525634765625,-0.06372173130512238,0.17371776700019836,-0.0007774312398396432,1.954200029373169,0.3202302090840537,-1.4556490897832894,111.96750351657786,1,14,-0.1171875,0.7416666666666667,0.0,1836.0,1.0,0.0,0.0,0.0,0.0,0.0,0.0,0.0,0.0,0.0,0.0,0.0,106.13135501209122,106.0974484750758,73.56192016601562,76.45464324951172,-2.682525634765625
1759474897.615255,73.46701049804688,76.63416290283203,-2.68511962890625,-0.05590733140707016,0.14158807694911957,0.004339124541729689,1.9538997411727905,0.334062251477084,0.6949539967283956,111.95253519190231,1,14,-0.12187500000000001,0.75,0.0,2242.0,1.0,0.0,0.0,0.0,0.0,0.0,0.0,0.0,0.0,0.0,0.0,0.0,106.19513370564333,106.16118196091227,73.46701049804688,76.63416290283203,-2.68511962890625
1759474898.6151333,73.44139862060547,76.75444793701172,-2.689300537109375,0.020327677950263023,0.16979071497917175,0.0034684804268181324,1.9511502981185913,0.09483537208811768,-2.3802520673016647,111.78842068486364,1,14,-0.1171875,0.7,0.0,2340.0,1.0,0.0,0.0,0.0,0.0,0.0,0.0,0.0,0.0,0.0,0.0,0.0,106.26437148379041,106.23033610728206,73.44139862060547,76.75444793701172,-2.689300537109375
1759474899.6151059,73.40104675292969,76.86564636230469,-2.694549560546875,-0.06511767953634262,0.17423084378242493,0.007653642911463976,1.9507856369018555,0.309508679830206,-2.045962029695377,111.7627120340143,1,14,-0.1171875,0.7416666666666667,0.0,2520.0,1.0,0.0,0.0,0.0,0.0,0.0,0.0,0.0,0.0,0.0,0.0,0.0,106.31698760054715,106.28283612663266,73.40104675292969,76.86564636230469,-2.694549560546875
1759474900.615103,73.37220001220703,76.92818450927734,-2.69140625,-0.06226929649710655,0.15482237935066223,0.013581504113972187,1.951778769493103,0.1447573238988523,-1.137055351240067,111.82775163730747,1,14,-0.1171875,0.7750000000000001,0.0,2814.0,1.0,0.0,0.0,0.0,0.0,0.0,0.0,0.0,0.0,0.0,0.0,0.0,106.34222573431154,106.30816199391622,73.37220001220703,76.92818450927734,-2.69140625
1759474901.6151443,73.35374450683594,76.96585845947266,-2.69281005859375,0.007081910967826843,0.101848304271698,0.015027513727545738,1.9535778760910034,-1.216994310519944,-3.282620341557445,111.92916542657676,1,14,-0.12656250000000002,0.7083333333333333,0.0,2665.0,1.0,0.0,0.0,0.0,0.0,0.0,0.0,0.0,0.0,0.0,0.0,0.0,106.35678834747412,106.32269372799836,73.35374450683594,76.96585845947266,-2.69281005859375
1759474902.6150794,73.35450744628906,77.10363006591797,-2.690582275390625,-0.03853714093565941,0.14610755443572998,0.012171595357358456,1.9529181718826294,0.18138620137056596,-0.7430035729524425,111.89107182053249,1,14,-0.1171875,0.7916666666666667,0.0,3195.0,1.0,0.0,0.0,0.0,0.0,0.0,0.0,0.0,0.0,0.0,0.0,0.0,106.45699960552267,106.42299343670805,73.35450744628906,77.10363006591797,-2.690582275390625
1759474903.6150239,73.3863754272461,77.09600830078125,-2.691925048828125,0.10779513418674469,-0.2547651529312134,-0.002563049318268895,1.9531301259994507,0.012346356815775167,6.129630510969487,111.89916340689116,1,14,-0.11249999999999999,0.8666666666666666,0.0,3285.0,1.0,1.0,0.0,0.0,0.0,0.0,0.0,0.0,0.0,0.0,0.0,0.0,106.4734758272282,106.43944097120597,73.3863754272461,77.09600830078125,-2.691925048828125
1759474904.615122,73.50546264648438,76.78710174560547,-2.694000244140625,0.11684760451316833,-0.3191709816455841,0.015097949653863907,1.9481300115585327,-0.10800405705296232,1.954490179583948,111.61988993167007,1,14,-0.10312500000000001,0.7333333333333333,0.0,2772.0,1.0,1.0,0.0,0.0,0.0,0.0,0.0,0.0,0.0,0.0,0.0,0.0,106.33235476880546,106.29822215523492,73.50546264648438,76.78710174560547,-2.694000244140625
1759474905.6150036,73.60340118408203,76.50506591796875,-2.69085693359375,0.0823059007525444,-0.2154271900653839,0.011269261129200459,1.948162317276001,-0.23357121629178446,1.0872532484345372,111.6235351737582,1,14,-0.09843750000000001,0.725,0.0,2560.0,1.0,1.0,0.0,0.0,0.0,0.0,0.0,0.0,0.0,0.0,0.0,0.0,106.19664066256871,106.16254413387837,73.60340118408203,76.50506591796875,-2.69085693359375
1759474906.6150997,73.70003509521484,76.31621551513672,-2.688568115234375,0.07067551463842392,-0.17790432274341583,0.006141808349639177,1.9481703042984009,-0.16973652963791305,1.4609105731395018,111.61616073486469,1,14,-0.09375,0.725,0.0,2520.0,1.0,1.0,0.0,0.0,0.0,0.0,0.0,0.0,0.0,0.0,0.0,0.0,106.12769818524733,106.09363752642612,73.70003509521484,76.31621551513672,-2.688568115234375
1759474907.615425,73.79721069335938,76.13777923583984,-2.688995361328125,0.07043968141078949,-0.17648333311080933,0.005113356746733189,1.9468947649002075,-0.13834853848963014,1.3331029836948987,111.54890125894748,1,14,-0.084375,0.7166666666666667,0.0,2280.0,1.0,1.0,0.0,0.0,0.0,0.0,0.0,0.0,0.0,0.0,0.0,0.0,106.06705628581763,106.03296531308347,73.79721069335938,76.13777923583984,-2.688995361328125
1759474908.6151097,73.88246154785156,75.99239349365234,-2.690826416015625,0.07397042959928513,-0.1712789684534073,0.009441059082746506,1.9451333284378052,0.022740467886118585,1.2771107870336054,111.44759734213581,1,14,-0.084375,0.7,0.0,1925.0,1.0,1.0,0.0,0.0,0.0,0.0,0.0,0.0,0.0,0.0,0.0,0.0,106.02217947233959,105.98802759398752,73.88246154785156,75.99239349365234,-2.690826416015625
1759474909.6152596,73.95059204101562,75.83969116210938,-2.68963623046875,0.068525530397892,-0.16860923171043396,0.006596310529857874,1.9448089599609375,0.1326324980929344,1.3787010753044409,111.4313279347685,1,14,-0.0796875,0.7,0.0,1925.0,1.0,1.0,0.0,0.0,0.0,0.0,0.0,0.0,0.0,0.0,0.0,0.0,105.96028955147823,105.92614794648607,73.95059204101562,75.83969116210938,-2.68963623046875
1759474910.615044,74.01519012451172,75.68214416503906,-2.689300537109375,0.0630682110786438,-0.17118686437606812,0.014221751131117344,1.9444485902786255,0.01911849640260751,1.3600277681037485,111.40755131552358,1,14,-0.0796875,0.675,0.0,1749.0,1.0,1.0,0.0,0.0,0.0,0.0,0.0,0.0,0.0,0.0,0.0,0.0,105.89271765312415,105.85856278348659,74.01519012451172,75.68214416503906,-2.689300537109375
1759474911.6151946,74.08718872070312,75.52569580078125,-2.686676025390625,0.06788789480924606,-0.17012552917003632,0.003128406824544072,1.944266676902771,0.021759312789014464,1.2670287573587733,111.39613132575249,1,14,-0.0703125,0.675,0.0,1664.0,1.0,1.0,0.0,0.0,0.0,0.0,0.0,0.0,0.0,0.0,0.0,0.0,105.83128311985372,105.79717509805839,74.08718872070312,75.52569580078125,-2.686676025390625
1759474912.6151288,74.14392852783203,75.37517547607422,-2.68804931640625,0.06252531707286835,-0.1645887941122055,0.002420826116576791,1.9446172714233398,0.014563366101390241,1.5140705624849886,111.42003249296953,1,14,-0.07500000000000001,0.6583333333333333,0.0,1519.0,1.0,1.0,0.0,0.0,0.0,0.0,0.0,0.0,0.0,0.0,0.0,0.0,105.76372168525783,105.72955696298574,74.14392852783203,75.37517547607422,-2.68804931640625
1759474913.6151764,74.19881439208984,75.19670104980469,-2.689788818359375,0.06719870120286942,-0.16768582165241241,-0.0004894990706816316,1.9460402727127075,0.062181600869916705,1.5021855448926549,111.49763406106415,1,14,-0.0703125,0.65,0.0,1716.0,1.0,1.0,0.0,0.0,0.0,0.0,0.0,0.0,0.0,0.0,0.0,0.0,105.67517622342945,105.64093858900297,74.19881439208984,75.19670104980469,-2.689788818359375
1759474914.615012,74.25740051269531,74.99952697753906,-2.691986083984375,0.07136738300323486,-0.17143212258815765,0.010248472914099693,1.945839524269104,0.2852446399105453,1.4256589211448465,111.48543648609828,1,14,-0.07500000000000001,0.6416666666666666,0.0,1519.0,1.0,1.0,0.0,0.0,0.0,0.0,0.0,0.0,0.0,0.0,0.0,0.0,105.57621591454118,105.54189015626663,74.25740051269531,74.99952697753906,-2.691986083984375
1759474915.6151586,74.28874206542969,74.80518341064453,-2.688079833984375,0.07075474411249161,-0.1646062433719635,0.0063230604864656925,1.9462852478027344,0.27649538114577943,1.5412993985820809,111.51365992289796,1,14,-0.07500000000000001,0.6333333333333333,0.0,1440.0,1.0,1.0,0.0,0.0,0.0,0.0,0.0,0.0,0.0,0.0,0.0,0.0,105.46022205532276,105.42595820178306,74.28874206542969,74.80518341064453,-2.688079833984375
1759474916.6151085,74.30635833740234,74.62334442138672,-2.68182373046875,0.019991399720311165,-0.04724358394742012,-0.003210090333595872,1.9451594352722168,0.24331680938731667,-5.374705787626136,111.44684945719462,1,14,-0.0796875,0.5,0.0,1410.0,1.0,0.0,0.0,0.0,0.0,0.0,0.0,0.0,0.0,0.0,0.0,0.0,105.34358357546347,105.309441276646,74.30635833740234,74.62334442138672,-2.68182373046875
1759474917.615106,74.23916625976562,74.70372772216797,-2.68218994140625,-0.08052429556846619,0.198125422000885,-0.006338745355606079,1.946366786956787,0.08885228130737742,-2.5075547552523894,111.52246036641733,1,14,-0.084375,0.6083333333333334,0.0,1232.0,1.0,0.0,0.0,0.0,0.0,0.0,0.0,0.0,0.0,0.0,0.0,0.0,105.35319114965009,105.31904263965245,74.23916625976562,74.70372772216797,-2.68218994140625
1759474918.6150694,74.13994598388672,74.91641998291016,-2.679718017578125,-0.0829399898648262,0.20985105633735657,0.0002841798705048859,1.9489591121673584,0.13207246334708767,-1.059116043999053,111.67045684585536,1,14,-0.08906249999999999,0.6416666666666666,0.0,1232.0,1.0,0.0,0.0,0.0,0.0,0.0,0.0,0.0,0.0,0.0,0.0,0.0,105.4342565877104,105.40019721779187,74.13994598388672,74.91641998291016,-2.679718017578125
1759474919.6151717,74.03340911865234,75.14871215820312,-2.677337646484375,-0.07284699380397797,0.20344670116901398,-0.0067899106070399284,1.9503098726272583,0.27369137419066003,-0.6261803026402729,111.74485235168251,1,14,-0.09375,0.675,0.0,1440.0,1.0,0.0,0.0,0.0,0.0,0.0,0.0,0.0,0.0,0.0,0.0,0.0,105.52460728019557,105.49063752184941,74.03340911865234,75.14871215820312,-2.677337646484375
1759474920.61509,73.92646789550781,75.40758514404297,-2.678253173828125,-0.08397024124860764,0.23780906200408936,-0.007319467607885599,1.9510787725448608,0.4431587626648323,-2.2323100359937347,111.79119164259097,1,14,-0.09843750000000001,0.65,0.0,1716.0,1.0,0.0,0.0,0.0,0.0,0.0,0.0,0.0,0.0,0.0,0.0,0.0,105.63427281344231,105.60031511677244,73.92646789550781,75.40758514404297,-2.678253173828125
1759474921.615033,73.78976440429688,75.6285400390625,-2.6783447265625,-0.07767144590616226,0.1904323548078537,0.0008811075822450221,1.948224663734436,0.39293049233266075,-0.28103040750019004,111.6258151400015,1,14,-0.10781249999999999,0.7166666666666667,0.0,1836.0,1.0,0.0,0.0,0.0,0.0,0.0,0.0,0.0,0.0,0.0,0.0,0.0,105.69663632186231,105.66269634682676,73.78976440429688,75.6285400390625,-2.6783447265625
1759474922.6153097,73.66883087158203,75.80120086669922,-2.676422119140625,-0.07779533416032791,0.18097633123397827,-0.0020314997527748346,1.9452193975448608,0.24813808075405072,-1.3014499248036282,111.45030655063509,1,14,-0.11249999999999999,0.6833333333333333,0.0,1836.0,1.0,0.0,0.0,0.0,0.0,0.0,0.0,0.0,0.0,0.0,0.0,0.0,105.73590653216752,105.70202786521855,73.66883087158203,75.80120086669922,-2.676422119140625
1759474923.6153812,73.56964111328125,75.96184539794922,-2.677032470703125,-0.07816654443740845,0.19774852693080902,-0.0055132778361439705,1.9443315267562866,-0.705135846824824,-1.0634840589735657,111.39464347622147,1,14,-0.1171875,0.7333333333333333,0.0,1836.0,1.0,0.0,0.0,0.0,0.0,0.0,0.0,0.0,0.0,0.0,0.0,0.0,105.78213720968272,105.74825790432172,73.56964111328125,75.96184539794922,-2.677032470703125
1759474924.6153395,73.52974700927734,76.08262634277344,-2.67596435546875,-0.06872377544641495,0.19142967462539673,-0.007378038950264454,1.942844033241272,0.08941021659256555,-2.4505341950567283,111.3181805365087,1,14,-0.1171875,0.6416666666666666,0.0,2016.0,1.0,0.0,0.0,0.0,0.0,0.0,0.0,0.0,0.0,0.0,0.0,0.0,105.84115698391695,105.80732359559244,73.52974700927734,76.08262634277344,-2.67596435546875
1759474925.6150765,73.50686645507812,76.17831420898438,-2.66973876953125,-0.06277473270893097,0.1671702265739441,-0.010632521472871304,1.9443804025650024,0.0487678535612419,-1.2502029023842922,111.41904986092165,1,14,-0.11249999999999999,0.7083333333333333,0.0,2457.0,1.0,0.0,0.0,0.0,0.0,0.0,0.0,0.0,0.0,0.0,0.0,0.0,105.89392086831509,105.86026153268016,73.50686645507812,76.17831420898438,-2.66973876953125
1759474926.615223,73.5009765625,76.22649383544922,-2.666717529296875,-0.058424629271030426,0.14773505926132202,-0.011833207681775093,1.946445107460022,0.025076374547688195,-1.997411424512497,111.5282144954259,1,14,-0.1171875,0.6583333333333333,0.0,2379.0,1.0,0.0,0.0,0.0,0.0,0.0,0.0,0.0,0.0,0.0,0.0,0.0,105.92442258737128,105.89084907623959,73.5009765625,76.22649383544922,-2.666717529296875
1759474927.6150908,73.47445678710938,76.32686614990234,-2.662353515625,-0.05123736336827278,0.12785816192626953,-0.01964501291513443,1.948623776435852,-0.057111635615644654,2.814127219017115,111.64664444607745,1,14,-0.1171875,0.8333333333333334,0.0,2881.0,1.0,0.0,0.0,0.0,0.0,0.0,0.0,0.0,0.0,0.0,0.0,0.0,105.97817899297984,105.94473227313338,73.47445678710938,76.32686614990234,-2.662353515625
1759474928.615255,73.47417449951172,76.3810806274414,-2.659576416015625,-0.06993423402309418,0.1747514009475708,-0.020208090543746948,1.9497387409210205,-0.14977293046899667,-0.8576156352300445,111.71005252674799,1,14,-0.1171875,0.7333333333333333,0.0,2520.0,1.0,0.0,0.0,0.0,0.0,0.0,0.0,0.0,0.0,0.0,0.0,0.0,106.01696629744237,105.98360154382566,73.47417449951172,76.3810806274414,-2.659576416015625
1759474929.6152573,73.47628021240234,76.48612213134766,-2.661712646484375,-0.06719525903463364,0.1757345348596573,-0.029730312526226044,1.9514975547790527,-0.1626406943805731,0.5410427461881123,111.81830571816964,1,14,-0.11249999999999999,0.7,0.0,2318.0,1.0,0.0,0.0,0.0,0.0,0.0,0.0,0.0,0.0,0.0,0.0,0.0,106.09418149340402,106.06078744070732,73.47628021240234,76.48612213134766,-2.661712646484375
1759474930.6151752,73.5116195678711,76.53724670410156,-2.660186767578125,0.015153548680245876,-0.03527272492647171,-0.024640148505568504,1.9512053728103638,-0.018051819786384406,1.7291993773826313,111.80329128289613,1,14,-0.11249999999999999,0.7833333333333334,0.0,3358.0,1.0,0.0,0.0,0.0,0.0,0.0,0.0,0.0,0.0,0.0,0.0,0.0,106.15547530944559,106.12213880494453,73.5116195678711,76.53724670410156,-2.660186767578125
1759474931.6150439,73.53346252441406,76.5666732788086,-2.66302490234375,-0.07624591141939163,0.17690613865852356,-0.02410423383116722,1.9540480375289917,-0.15506441093434803,-0.5207118153124899,111.9619379698919,1,14,-0.10781249999999999,0.725,0.0,2520.0,1.0,0.0,0.0,0.0,0.0,0.0,0.0,0.0,0.0,0.0,0.0,0.0,106.19188890609175,106.15849267869825,73.53346252441406,76.5666732788086,-2.66302490234375
1759474932.6153803,73.55368041992188,76.65409851074219,-2.671844482421875,-0.024117594584822655,0.07756731659173965,-0.012711853720247746,1.95258629322052,-0.04918275265019511,-1.1784019116603903,111.85985400620446,1,14,-0.10312500000000001,0.7083333333333333,0.0,2665.0,1.0,0.0,0.0,0.0,0.0,0.0,0.0,0.0,0.0,0.0,0.0,0.0,106.269155801431,106.23556241584343,73.55368041992188,76.65409851074219,-2.671844482421875
1759474933.615129,73.55878448486328,76.7750473022461,-2.680084228515625,-0.04882650822401047,0.13056963682174683,-0.006962845101952553,1.9525569677352905,-0.07088065645441485,-0.5192002001887976,111.87327626279193,1,14,-0.09375,0.7750000000000001,0.0,2967.0,1.0,0.0,0.0,0.0,0.0,0.0,0.0,0.0,0.0,0.0,0.0,0.0,106.36016883507014,106.32639683142041,73.55878448486328,76.7750473022461,-2.680084228515625
1759474934.6152081,73.52149963378906,76.94400024414062,-2.684600830078125,-0.06735659390687943,0.17315107583999634,0.0043158563785254955,1.9520035982131958,-0.07558510827863472,-1.0946187013907631,111.8415735547779,1,14,-0.08906249999999999,0.7750000000000001,0.0,3150.0,1.0,0.0,0.0,0.0,0.0,0.0,0.0,0.0,0.0,0.0,0.0,0.0,106.45655059031554,106.42269533314573,73.52149963378906,76.94400024414062,-2.684600830078125
1759474935.6151466,73.48942565917969,77.11703491210938,-2.68389892578125,-0.05387374758720398,0.1423540860414505,-0.0011986817698925734,1.951820731163025,0.0695011020878126,-2.8449260193723767,111.83109211323297,1,14,-0.09375,0.7333333333333333,0.0,3358.0,1.0,0.0,0.0,0.0,0.0,0.0,0.0,0.0,0.0,0.0,0.0,0.0,106.55954237324504,106.52573753488682,73.48942565917969,77.11703491210938,-2.68389892578125
1759474936.6150715,73.487060546875,77.17333984375,-2.6829833984375,0.10789412260055542,-0.27252912521362305,-0.004555773921310902,1.952087163925171,0.052494883780072325,5.86139034102808,111.84635833391701,1,14,-0.08906249999999999,0.8833333333333333,0.0,4233.0,1.0,1.0,0.0,0.0,0.0,0.0,0.0,0.0,0.0,0.0,0.0,0.0,106.59864375485878,106.56487437452833,73.487060546875,77.17333984375,-2.6829833984375
1759474937.6151104,73.58234405517578,76.90599822998047,-2.677703857421875,0.1168898493051529,-0.3068438470363617,-0.0010240277042612433,1.9497190713882446,-0.04944490409547826,1.5719784835842643,111.71067797760003,1,14,-0.084375,0.7333333333333333,0.0,3080.0,1.0,1.0,0.0,0.0,0.0,0.0,0.0,0.0,0.0,0.0,0.0,0.0,106.47095387171129,106.4372769306131,73.58234405517578,76.90599822998047,-2.677703857421875
1759474938.6151056,73.66569519042969,76.68169403076172,-2.678955078125,0.07221928238868713,-0.1980063021183014,0.0029937238432466984,1.9502036571502686,-0.08445075430987362,1.184958259902813,111.73669664227351,1,14,-0.084375,0.7333333333333333,0.0,3036.0,1.0,1.0,0.0,0.0,0.0,0.0,0.0,0.0,0.0,0.0,0.0,0.0,106.36678827353613,106.33304682607685,73.66569519042969,76.68169403076172,-2.678955078125
1759474939.6152952,73.7553482055664,76.5057601928711,-2.6845703125,0.07132956385612488,-0.17550310492515564,-0.0017127980245277286,1.9500919580459595,-0.025171483939301943,1.4004945074791395,111.73203877310613,1,14,-0.0796875,0.725,0.0,2706.0,1.0,1.0,0.0,0.0,0.0,0.0,0.0,0.0,0.0,0.0,0.0,0.0,106.30235015923309,106.26844654747451,73.7553482055664,76.5057601928711,-2.6845703125
1759474940.6151633,73.84980773925781,76.33744812011719,-2.683563232421875,0.07230067998170853,-0.1658347249031067,0.0013867720263078809,1.9495415687561035,0.027712445708197198,1.5836243161393324,111.70050661608592,1,14,-0.0796875,0.7166666666666667,0.0,2583.0,1.0,1.0,0.0,0.0,0.0,0.0,0.0,0.0,0.0,0.0,0.0,0.0,106.2468898379587,106.21299397256875,73.84980773925781,76.33744812011719,-2.683563232421875
1759474941.6150675,73.93790435791016,76.15420532226562,-2.683990478515625,0.06772223114967346,-0.17136862874031067,0.0008011048194020987,1.9491335153579712,-0.10799431416834487,1.5907374855726297,111.67712815353913,1,14,-0.0703125,0.7,0.0,2318.0,1.0,1.0,0.0,0.0,0.0,0.0,0.0,0.0,0.0,0.0,0.0,0.0,106.17664759255692,106.142718493099,73.93790435791016,76.15420532226562,-2.683990478515625
1759474942.615064,74.04011535644531,75.96954345703125,-2.68621826171875,0.06641004234552383,-0.17650899291038513,0.0033494154922664165,1.9469751119613647,-0.2819504263936599,1.4554493490219278,111.55346193756986,1,14,-0.06562499999999999,0.675,0.0,1960.0,1.0,1.0,0.0,0.0,0.0,0.0,0.0,0.0,0.0,0.0,0.0,0.0,106.11562553938548,106.0816205337451,74.04011535644531,75.96954345703125,-2.68621826171875
1759474943.6153347,74.15233612060547,75.79991149902344,-2.684417724609375,0.07338588684797287,-0.16900068521499634,0.00015493477985728532,1.9452446699142456,-0.15555543112557024,1.4391904461087828,111.45430834655697,1,14,-0.060937500000000006,0.675,0.0,1749.0,1.0,1.0,0.0,0.0,0.0,0.0,0.0,0.0,0.0,0.0,0.0,0.0,106.07262433787162,106.03865113911547,74.15233612060547,75.79991149902344,-2.684417724609375
1759474944.615104,74.2524185180664,75.62438201904297,-2.683990478515625,0.07197387516498566,-0.16587457060813904,0.004494044464081526,1.9448072910308838,-0.036900839515002164,1.4741456310205097,111.42925468904156,1,14,-0.051562500000000004,0.6666666666666666,0.0,1600.0,1.0,1.0,0.0,0.0,0.0,0.0,0.0,0.0,0.0,0.0,0.0,0.0,106.01732224704132,105.98334214179245,74.2524185180664,75.62438201904297,-2.683990478515625
1759474945.6151915,74.33871459960938,75.44252014160156,-2.6844482421875,0.07193730026483536,-0.1694425493478775,0.002837434411048889,1.9442085027694702,0.013520580876062189,1.5114120520208862,111.39494108471057,1,14,-0.051562500000000004,0.65,0.0,1410.0,1.0,1.0,0.0,0.0,0.0,0.0,0.0,0.0,0.0,0.0,0.0,0.0,105.94821657773724,105.91420270029008,74.33871459960938,75.44252014160156,-2.6844482421875
1759474946.6150417,74.42976379394531,75.2574691772461,-2.68511962890625,0.07660175114870071,-0.17228902876377106,0.005099544767290354,1.9438458681106567,0.09975059426684386,1.4249960809855349,111.37416689134407,1,14,-0.046875,0.6416666666666666,0.0,1232.0,1.0,1.0,0.0,0.0,0.0,0.0,0.0,0.0,0.0,0.0,0.0,0.0,105.88052829868283,105.84647563989382,74.42976379394531,75.2574691772461,-2.68511962890625
1759474947.6150615,74.5038070678711,75.08523559570312,-2.690155029296875,0.07161511480808258,-0.16808749735355377,0.005808610003441572,1.9428446292877197,0.13524851551810887,1.507650727538906,111.31679823569746,1,14,-0.046875,0.6333333333333333,0.0,1440.0,1.0,1.0,0.0,0.0,0.0,0.0,0.0,0.0,0.0,0.0,0.0,0.0,105.81042862662666,105.77622545765567,74.5038070678711,75.08523559570312,-2.690155029296875
1759474948.615079,74.53541564941406,74.96385955810547,-2.695343017578125,-0.05063397064805031,0.12119076400995255,0.009713374078273773,1.9431029558181763,0.06459438166416934,-3.736921991551104,111.33160242309089,1,14,-0.051562500000000004,0.5833333333333334,0.0,1305.0,1.0,0.0,0.0,0.0,0.0,0.0,0.0,0.0,0.0,0.0,0.0,0.0,105.74674132029169,105.7123853948925,74.53541564941406,74.96385955810547,-2.695343017578125
1759474949.6149805,74.47124481201172,75.11373138427734,-2.6949462890625,-0.07260696589946747,0.19500485062599182,0.013548839837312698,1.9423854351043701,0.1776531582088128,-1.9385664367184152,111.29048914442191,1,14,-0.051562500000000004,0.6333333333333333,0.0,1305.0,1.0,0.0,0.0,0.0,0.0,0.0,0.0,0.0,0.0,0.0,0.0,0.0,105.80785264724393,105.77352667997769,74.47124481201172,75.11373138427734,-2.6949462890625
1759474950.6149619,74.38434600830078,75.34635162353516,-2.690582275390625,-0.09662565588951111,0.24674567580223083,0.009687040001153946,1.9425419569015503,0.15375601949240555,-2.302834674415111,111.30063451053223,1,14,-0.051562500000000004,0.6666666666666666,0.0,1410.0,1.0,0.0,0.0,0.0,0.0,0.0,0.0,0.0,0.0,0.0,0.0,0.0,105.91195809275106,105.87777686587498,74.38434600830078,75.34635162353516,-2.690582275390625
1759474951.615124,74.28923797607422,75.59904479980469,-2.684783935546875,-0.0757477730512619,0.19272774457931519,0.005396129563450813,1.942429542541504,0.19390325532422426,-2.4501374678962327,111.28906745961108,1,14,-0.051562500000000004,0.675,0.0,1519.0,1.0,0.0,0.0,0.0,0.0,0.0,0.0,0.0,0.0,0.0,0.0,0.0,106.02506551985353,105.99106780153063,74.28923797607422,75.59904479980469,-2.684783935546875
1759474952.615384,74.19363403320312,75.86238098144531,-2.683807373046875,-0.08031013607978821,0.19393014907836914,0.0025755688548088074,1.9434882402420044,0.06641214304318091,-2.3950080545549426,111.34708892497585,1,14,-0.051562500000000004,0.6916666666666667,0.0,1440.0,1.0,0.0,0.0,0.0,0.0,0.0,0.9266052860849928,0.0,0.0,0.0,0.0,0.0,106.14612099008825,106.1121867611201,74.19363403320312,75.86238098144531,-2.683807373046875
1759474953.6151776,74.10066986083984,76.12932586669922,-2.681732177734375,-0.0854267105460167,0.23208297789096832,-0.002883258042857051,1.942999243736267,0.19487341940242567,-2.1325102554280457,111.33303156984712,1,14,-0.0796875,0.6416666666666666,0.0,1519.0,1.0,0.0,0.0,0.0,0.0,0.0,0.9266052860849928,0.0,0.0,0.0,0.0,0.0,106.27217518342397,106.23833362183001,74.10066986083984,76.12932586669922,-2.681732177734375
1759474954.6150026,74.0008773803711,76.39274597167969,-2.6827392578125,-0.0775463804602623,0.2057417631149292,0.0013343521859496832,1.9425499439239502,0.2683121712118566,-3.3698671837354537,111.29721553295778,1,14,-0.07500000000000001,0.6000000000000001,0.0,1519.0,1.0,0.0,0.0,0.0,0.0,0.0,0.0,1.8532105721699856,0.0,0.0,0.0,0.0,106.39162833646128,106.35779938565061,74.0008773803711,76.39274597167969,-2.6827392578125
1759474955.6153042,73.87464141845703,76.65275573730469,-2.679412841796875,-0.08974683284759521,0.22122907638549805,-0.0005025125574320555,1.94138503074646,0.2268001301606926,-1.9763555929198868,111.23462124833834,1,14,-0.06562499999999999,0.6416666666666666,0.0,1440.0,1.0,0.0,0.0,0.0,0.0,0.0,1.1211923961628414,0.0,0.0,0.0,0.0,0.0,106.49078298146412,106.45706931354303,73.87464141845703,76.65275573730469,-2.679412841796875
1759474956.6155152,73.76152801513672,76.89227294921875,-2.67596435546875,-0.07541605830192566,0.20153933763504028,-0.004467899911105633,1.9410532712936401,0.29623923868121116,-1.7887730410197318,111.21278656940171,1,14,-0.056249999999999994,0.5916666666666667,0.0,1802.0,1.0,0.0,0.0,0.0,0.0,0.0,1.1211923961628414,0.0,0.0,0.0,0.0,0.0,106.58492125838765,106.55132403881689,73.76152801513672,76.89227294921875,-2.67596435546875
1759474957.6152525,73.64691162109375,77.10127258300781,-2.67559814453125,-0.08298508822917938,0.20179036259651184,-0.007212908007204533,1.939944863319397,0.19476721967771723,-2.142622129744745,111.14581420262407,1,14,-0.0421875,0.6083333333333334,0.0,1802.0,1.0,0.0,0.0,0.0,0.0,0.0,0.0,2.2423847923256828,0.0,0.0,0.0,0.0,106.65661090938285,106.62304546975042,73.64691162109375,77.10127258300781,-2.67559814453125
1759474958.6150303,73.53108215332031,77.32511901855469,-2.672821044921875,-0.08734951168298721,0.21944603323936462,-0.0043600741773843765,1.9386845827102661,0.16261147627594885,-1.8709857772059377,111.07137602148754,1,14,-0.046875,0.6333333333333333,0.0,1836.0,1.0,0.0,0.0,0.0,0.0,0.0,0.0,0.0,0.0,0.0,0.0,0.0,106.73864364048367,106.70517360405722,73.53108215332031,77.32511901855469,-2.672821044921875
1759474959.615049,73.43851470947266,77.54415893554688,-2.675445556640625,-0.05982329323887825,0.14194943010807037,-0.009528844617307186,1.9383741617202759,-0.0024673885316688197,-0.4879406850991586,111.07316581706664,1,14,-0.051562500000000004,0.65,0.0,2183.0,1.0,0.0,0.0,0.0,0.0,0.0,0.0,0.0,0.0,0.0,0.0,0.0,106.83384312417733,106.80033720805747,73.43851470947266,77.54415893554688,-2.675445556640625
1759474960.6150134,73.3871078491211,77.72913360595703,-2.6748046875,-0.06482001394033432,0.1815899759531021,-0.0070606437511742115,1.9396188259124756,0.17237977618250722,-1.4885349251158435,111.13490844885764,1,14,-0.051562500000000004,0.65,0.0,2457.0,1.0,0.0,0.0,0.0,0.0,0.0,0.0,0.0,0.0,0.0,0.0,0.0,106.93287796420482,106.89941912653805,73.3871078491211,77.72913360595703,-2.6748046875
1759474961.615138,73.3331069946289,77.89256286621094,-2.676910400390625,-0.0717330276966095,0.20750102400779724,-0.004840553272515535,1.9399970769882202,0.19552355464173365,-2.833171991526885,111.15353142339147,1,14,-0.056249999999999994,0.6166666666666667,0.0,2457.0,1.0,0.0,0.0,0.0,0.0,0.0,0.0,0.0,0.0,0.0,0.0,0.0,107.0147736559959,106.98128776263779,73.3331069946289,77.89256286621094,-2.676910400390625
1759474962.6151018,73.2928466796875,77.99765014648438,-2.674163818359375,-0.02077893353998661,0.06831108778715134,-0.008628983050584793,1.9388302564620972,0.29844583165127475,-4.598044790712487,111.08615061306185,1,14,-0.051562500000000004,0.5833333333333334,0.0,2560.0,1.0,0.0,0.0,0.0,0.0,0.0,0.0,0.0,0.0,0.0,0.0,0.0,107.06365375286319,107.03025181127788,73.2928466796875,77.99765014648438,-2.674163818359375
1759474963.6152134,73.21275329589844,78.11591339111328,-2.6754150390625,-0.02180340327322483,0.038293614983558655,0.00026968945167027414,1.9390121698379517,0.20646932958802824,2.9665122431334,111.0987990759443,1,14,-0.051562500000000004,0.8,0.0,3312.0,1.0,0.0,0.0,0.0,0.0,0.0,0.0,0.0,0.0,0.0,0.0,0.0,107.09510266919418,107.06167927925472,73.21275329589844,78.11591339111328,-2.6754150390625
1759474964.6151848,73.1712417602539,78.1648941040039,-2.668548583984375,-0.04786771163344383,0.11067203432321548,-0.015061457641422749,1.937917947769165,0.17970577274743596,-0.45790587910718356,111.0364959085003,1,14,-0.056249999999999994,0.7,0.0,3358.0,1.0,0.0,0.0,0.0,0.0,0.0,0.0,0.0,0.0,0.0,0.0,0.0,107.10229896025928,107.06904917401513,73.1712417602539,78.1648941040039,-2.668548583984375
1759474965.6151612,73.1430892944336,78.23490142822266,-2.66925048828125,-0.05414942651987076,0.12485367804765701,-0.0061045303009450436,1.938468098640442,0.021568555038275004,-1.3235069774634465,111.07166571821197,1,14,-0.060937500000000006,0.6416666666666666,0.0,3431.0,1.0,0.0,0.0,0.0,0.0,0.0,0.0,0.0,0.0,0.0,0.0,0.0,107.13419720699078,107.10093983255797,73.1430892944336,78.23490142822266,-2.66925048828125
1759474966.6152666,73.11207580566406,78.33552551269531,-2.672149658203125,-0.03039899468421936,0.06676807254552841,-0.013687639497220516,1.938446044921875,-0.08759673804596328,-2.2953910332813754,111.06840811670091,1,14,-0.056249999999999994,0.6666666666666666,0.0,3478.0,1.0,0.0,0.0,0.0,0.0,0.0,0.0,0.0,0.0,0.0,0.0,0.0,107.18661562788118,107.15330226345479,73.11207580566406,78.33552551269531,-2.672149658203125
1759474967.6151056,73.1135025024414,78.41574096679688,-2.673248291015625,-0.006379931699484587,0.01755266822874546,-0.00042918967665173113,1.9385141134262085,-0.05283550978357331,-0.7294315069599518,111.06775097514037,1,14,-0.051562500000000004,0.725,0.0,3822.0,1.0,0.0,0.0,0.0,0.0,0.0,0.0,0.0,0.0,0.0,0.0,0.0,107.24625371532429,107.21293149404269,73.1135025024414,78.41574096679688,-2.673248291015625
1759474968.6151352,73.11296844482422,78.48992156982422,-2.6739501953125,-0.046079471707344055,0.10533685237169266,-0.011403728276491165,1.9394240379333496,-0.13623332714905775,-3.2889189523032147,111.12044079654673,1,14,-0.051562500000000004,0.6833333333333333,0.0,3525.0,1.0,0.0,0.0,0.0,0.0,0.0,0.0,0.0,0.0,0.0,0.0,0.0,107.30015821282852,107.26683524207759,73.11296844482422,78.48992156982422,-2.6739501953125
1759474969.6151438,73.11067199707031,78.6068115234375,-2.67913818359375,-0.03558984398841858,0.11139336973428726,-0.002495646011084318,1.9380779266357422,0.010439301872986475,-0.5330292482574956,111.04306946674657,1,14,-0.046875,0.6833333333333333,0.0,4131.0,1.0,0.0,0.0,0.0,0.0,0.0,0.0,0.0,0.0,0.0,0.0,0.0,107.38425843274804,107.3508322172885,73.11067199707031,78.6068115234375,-2.67913818359375
1759474970.6152139,73.1186752319336,78.65232849121094,-2.686767578125,-0.0383712500333786,0.11327851563692093,0.011455005034804344,1.938672661781311,0.1409936070381518,-1.0142961552749306,111.07781030444158,1,14,-0.0421875,0.6583333333333333,0.0,3822.0,1.0,0.0,0.0,0.0,0.0,0.0,0.0,0.0,0.0,0.0,0.0,0.0,107.42321985856314,107.38961516255812,73.1186752319336,78.65232849121094,-2.686767578125
1759474971.61526,73.11847686767578,78.67720794677734,-2.68109130859375,0.008438928984105587,-0.004173677880316973,0.001585868769325316,1.938390851020813,0.16569583711852426,3.5891173639907668,111.06420419797809,1,14,-0.0421875,0.8166666666666667,0.0,4698.0,1.0,0.0,0.0,0.0,0.0,0.0,0.0,0.0,0.0,0.0,0.0,0.0,107.4411604570348,107.4077032141982,73.11847686767578,78.67720794677734,-2.68109130859375
1759474972.6150258,73.13341522216797,78.64004516601562,-2.68231201171875,-0.005776800215244293,0.028135200962424278,-0.0070794811472296715,1.9381777048110962,0.22208737120838995,0.03373566696170891,111.05134461748544,1,14,-0.0421875,0.7583333333333333,0.0,4730.0,1.0,0.0,0.0,0.0,0.0,0.0,0.0,0.0,0.0,0.0,0.0,0.0,107.42414962893221,107.39065660368694,73.13341522216797,78.64004516601562,-2.68231201171875
1759474973.6150763,73.11671447753906,78.65226745605469,-2.684173583984375,-0.012151551432907581,0.04818182811141014,0.0040756706148386,1.9378330707550049,0.2511730859944014,3.8815814446384165,111.02582767021786,1,14,-0.051562500000000004,0.7833333333333334,0.0,4872.0,1.0,0.0,0.0,0.0,0.0,0.0,0.0,0.0,0.0,0.0,0.0,0.0,107.42177572446701,107.38823544489745,73.11671447753906,78.65226745605469,-2.684173583984375
1759474974.615127,73.12908172607422,78.51728820800781,-2.68878173828125,0.13786651194095612,-0.3592816889286041,-0.0018656539032235742,1.9363104104995728,0.3283553931026614,4.299224142591484,110.9407625730558,1,14,-0.051562500000000004,0.75,0.0,4785.0,1.0,1.0,0.0,0.0,0.0,0.0,0.0,0.0,0.0,0.0,0.0,0.0,107.33152700336616,107.29784313600253,73.12908172607422,78.51728820800781,-2.68878173828125
1759474975.6150098,73.20970916748047,78.14569091796875,-2.687469482421875,0.10831428319215775,-0.28554627299308777,0.0071347677148878574,1.9314923286437988,0.319671290471171,1.788814042135216,110.66544751086961,1,14,-0.051562500000000004,0.6583333333333333,0.0,4182.0,1.0,1.0,0.0,0.0,0.0,0.0,0.0,0.0,0.0,0.0,0.0,0.0,107.11504571092115,107.08132668880124,73.20970916748047,78.14569091796875,-2.687469482421875
1759474976.6151552,73.25724029541016,77.84197998046875,-2.68231201171875,0.0713215172290802,-0.1897217482328415,0.004007055889815092,1.9291821718215942,0.44908230033025764,1.5112423054590163,110.53616489374186,1,14,-0.051562500000000004,0.6666666666666666,0.0,4131.0,1.0,1.0,0.0,0.0,0.0,0.0,0.0,0.0,0.0,0.0,0.0,0.0,106.9261048608214,106.89245578140284,73.25724029541016,77.84197998046875,-2.68231201171875
1759474977.615128,73.28202819824219,77.59497833251953,-2.68243408203125,0.05658194422721863,-0.18161725997924805,0.0027760162483900785,1.9302467107772827,0.17619249719943794,1.5962190178957119,110.58850079999165,1,14,-0.056249999999999994,0.6583333333333333,0.0,3648.0,1.0,1.0,0.0,0.0,0.0,0.0,0.0,0.0,0.0,0.0,0.0,0.0,106.76343836668329,106.72973493489121,73.28202819824219,77.59497833251953,-2.68243408203125
1759474978.6151905,73.32772827148438,77.37277221679688,-2.6842041015625,0.059053245931863785,-0.17434094846248627,0.0034200840163975954,1.9314945936203003,0.05154257847561442,1.625736995788817,110.6662759718787,1,14,-0.056249999999999994,0.65,0.0,3240.0,1.0,1.0,0.0,0.0,0.0,0.0,0.0,0.0,0.0,0.0,0.0,0.0,106.63351520806124,106.59972614396804,73.32772827148438,77.37277221679688,-2.6842041015625
1759474979.6152124,73.37930297851562,77.16162872314453,-2.68487548828125,0.06275542080402374,-0.18127135932445526,0.004711157642304897,1.9318925142288208,0.04509881090404186,1.4710149830635406,110.68847257472808,1,14,-0.060937500000000006,0.6333333333333333,0.0,3124.0,1.0,1.0,0.0,0.0,0.0,0.0,0.0,0.0,0.0,0.0,0.0,0.0,106.51595002256126,106.48210672606547,73.37930297851562,77.16162872314453,-2.68487548828125
1759474980.6152039,73.43962097167969,76.9772720336914,-2.68585205078125,0.06817405670881271,-0.17646338045597076,0.00038901137304492295,1.9316787719726562,0.06977974109305471,1.375895618356688,110.67305635217198,1,14,-0.060937500000000006,0.6333333333333333,0.0,2924.0,1.0,1.0,0.0,0.0,0.0,0.0,0.0,0.0,0.0,0.0,0.0,0.0,106.42411446402356,106.39021730503657,73.43962097167969,76.9772720336914,-2.68585205078125
1759474981.615234,73.49181365966797,76.80117797851562,-2.68621826171875,0.06901876628398895,-0.1681128740310669,0.004675102420151234,1.9328172206878662,0.1155675506374235,1.3694536483543522,110.74184543757136,1,14,-0.06562499999999999,0.625,0.0,2520.0,1.0,1.0,0.0,0.0,0.0,0.0,0.0,0.0,0.0,0.0,0.0,0.0,106.33288946710977,106.29895396416181,73.49181365966797,76.80117797851562,-2.68621826171875
1759474982.615113,73.54937744140625,76.61687469482422,-2.682769775390625,0.06997334212064743,-0.16985031962394714,0.003483239095658064,1.9330958127975464,0.1846138492713925,1.4085736335267465,110.75389417791757,1,14,-0.06562499999999999,0.6083333333333334,0.0,2379.0,1.0,1.0,0.0,0.0,0.0,0.0,0.0,0.0,0.0,0.0,0.0,0.0,106.23960496767947,106.20572682309007,73.54937744140625,76.61687469482422,-2.682769775390625
1759474983.615139,73.60107421875,76.42865753173828,-2.677886962890625,0.0663904994726181,-0.17141681909561157,-0.00541128683835268,1.9335505962371826,0.15764928567233347,1.4165368523812794,110.78384500822919,1,14,-0.060937500000000006,0.6000000000000001,0.0,2183.0,1.0,1.0,0.0,0.0,0.0,0.0,0.0,0.0,0.0,0.0,0.0,0.0,106.13966693392108,106.10588022469669,73.60107421875,76.42865753173828,-2.677886962890625
1759474984.6151414,73.611572265625,76.33979797363281,-2.67694091796875,-0.05723533779382706,0.1556202620267868,-0.001596100046299398,1.9342783689498901,0.21882410151181209,-1.3246518734608466,110.82598498911398,1,14,-0.06562499999999999,0.6083333333333334,0.0,2146.0,1.0,0.0,0.0,0.0,0.0,0.0,0.0,0.0,0.0,0.0,0.0,0.0,106.08295970018324,106.04917880904314,73.611572265625,76.33979797363281,-2.67694091796875
1759474985.6151419,73.54135131835938,76.44874572753906,-2.674407958984375,-0.053709521889686584,0.1520652323961258,-0.0101168779656291,1.9361491203308105,0.3390080940995361,-1.687867535204112,110.93439812404823,1,14,-0.0703125,0.5916666666666667,0.0,2220.0,1.0,0.0,0.0,0.0,0.0,0.0,0.0,0.0,0.0,0.0,0.0,0.0,106.11264549984304,106.07893795209434,73.54135131835938,76.44874572753906,-2.674407958984375
1759474986.6152852,73.45494842529297,76.60897827148438,-2.67449951171875,-0.052885979413986206,0.14424777030944824,-0.0052663846872746944,1.9372631311416626,0.32330649213023244,-0.6635157348433817,110.99700619468723,1,14,-0.07500000000000001,0.6833333333333333,0.0,2665.0,1.0,0.0,0.0,0.0,0.0,0.0,0.0,0.0,0.0,0.0,0.0,0.0,106.16834720198577,106.13465503766061,73.45494842529297,76.60897827148438,-2.67449951171875
1759474987.6151614,73.36693572998047,76.7348861694336,-2.676055908203125,-0.06965912133455276,0.17089824378490448,0.0022204990964382887,1.9371634721755981,0.26039872672394754,0.7667039317750326,110.99129209488859,1,14,-0.084375,0.6666666666666666,0.0,2318.0,1.0,0.0,0.0,0.0,0.0,0.0,0.0,0.0,0.0,0.0,0.0,0.0,106.19845238546014,106.16473055512841,73.36693572998047,76.7348861694336,-2.676055908203125
1759474988.6152318,73.29731750488281,76.84322357177734,-2.674896240234375,-0.04170818626880646,0.11567573249340057,-0.0071991970762610435,1.9369200468063354,0.37976012972349243,3.5031463632309956,110.97891893830793,1,14,-0.084375,0.7333333333333333,0.0,2772.0,1.0,0.0,0.0,0.0,0.0,0.0,0.0,0.0,0.0,0.0,0.0,0.0,106.22868177761492,106.1949987631892,73.29731750488281,76.84322357177734,-2.674896240234375
1759474989.615159,73.22330474853516,76.94988250732422,-2.677276611328125,-0.05177120491862297,0.12523239850997925,-0.006268019787967205,1.9352046251296997,0.3137017126705018,1.3800632390021879,110.87905873549406,1,14,-0.084375,0.7416666666666667,0.0,2280.0,1.0,0.0,0.0,0.0,0.0,0.0,0.0,0.0,0.0,0.0,0.0,0.0,106.25490382208916,106.22116915280048,73.22330474853516,76.94988250732422,-2.677276611328125
1759474990.615386,73.1406021118164,77.04537963867188,-2.67938232421875,-0.051376912742853165,0.12816214561462402,0.0004713439557235688,1.93407142162323,0.22580039802492397,-2.9186704937351116,110.81897845154512,1,14,-0.08906249999999999,0.5666666666666667,0.0,2418.0,1.0,0.0,0.0,0.0,0.0,0.0,0.0,0.0,0.0,0.0,0.0,0.0,106.26719762271635,106.23341376867316,73.1406021118164,77.04537963867188,-2.67938232421875
1759474991.6152234,73.04425048828125,77.19237518310547,-2.68963623046875,-0.060748714953660965,0.14992570877075195,0.0038144343998283148,1.9336237907409668,0.19216173763771224,-2.192630567191937,110.788485884038,1,14,-0.09843750000000001,0.65,0.0,2520.0,1.0,0.0,0.0,0.0,0.0,0.0,0.0,0.0,0.0,0.0,0.0,0.0,106.3078522916174,106.27382234494105,73.04425048828125,77.19237518310547,-2.68963623046875
